[
  {
    "stop_id": "n622522403",
    "stop_code": "",
    "stop_name": "Sasthammugal",
    "stop_desc": "",
    "stop_lat": "9.9531189",
    "stop_lon": "76.3899537",
    "zone_id": "",
    "stop_url": "",
    "location_type": "0",
    "parent_station": "",
    "stop_timezone": "",
    "wheelchair_boarding": "0"
  },
  {
    "stop_id": "n622536423",
    "stop_code": "",
    "stop_name": "Kuppethazham",
    "stop_desc": "",
    "stop_lat": "9.9390558",
    "stop_lon": "76.4185065",
    "zone_id": "",
    "stop_url": "",
    "location_type": "0",
    "parent_station": "",
    "stop_timezone": "",
    "wheelchair_boarding": "0"
  },
  {
    "stop_id": "n622536426",
    "stop_code": "",
    "stop_name": "Kochangady",
    "stop_desc": "",
    "stop_lat": "9.9337278",
    "stop_lon": "76.42336",
    "zone_id": "",
    "stop_url": "",
    "location_type": "0",
    "parent_station": "",
    "stop_timezone": "",
    "wheelchair_boarding": "0"
  },
  {
    "stop_id": "n622536442",
    "stop_code": "",
    "stop_name": "Tondanpara",
    "stop_desc": "",
    "stop_lat": "9.9437003",
    "stop_lon": "76.4008187",
    "zone_id": "",
    "stop_url": "",
    "location_type": "0",
    "parent_station": "",
    "stop_timezone": "",
    "wheelchair_boarding": "0"
  },
  {
    "stop_id": "n622536448",
    "stop_code": "",
    "stop_name": "Vandipetta",
    "stop_desc": "",
    "stop_lat": "9.9418814",
    "stop_lon": "76.4105592",
    "zone_id": "",
    "stop_url": "",
    "location_type": "0",
    "parent_station": "",
    "stop_timezone": "",
    "wheelchair_boarding": "0"
  },
  {
    "stop_id": "n622536449",
    "stop_code": "",
    "stop_name": "Valavu",
    "stop_desc": "",
    "stop_lat": "9.9397164",
    "stop_lon": "76.4133365",
    "zone_id": "",
    "stop_url": "",
    "location_type": "0",
    "parent_station": "",
    "stop_timezone": "",
    "wheelchair_boarding": "0"
  },
  {
    "stop_id": "n622536458",
    "stop_code": "",
    "stop_name": "Vennikkulam",
    "stop_desc": "",
    "stop_lat": "9.9472484",
    "stop_lon": "76.3953604",
    "zone_id": "",
    "stop_url": "",
    "location_type": "0",
    "parent_station": "",
    "stop_timezone": "",
    "wheelchair_boarding": "0"
  },
  {
    "stop_id": "n944902406",
    "stop_code": "",
    "stop_name": "Labour Corner",
    "stop_desc": "",
    "stop_lat": "9.9778726",
    "stop_lon": "76.3342102",
    "zone_id": "",
    "stop_url": "",
    "location_type": "0",
    "parent_station": "",
    "stop_timezone": "",
    "wheelchair_boarding": "0"
  },
  {
    "stop_id": "n976452403",
    "stop_code": "",
    "stop_name": "Edappally Toll",
    "stop_desc": "",
    "stop_lat": "10.02805",
    "stop_lon": "76.3110503",
    "zone_id": "",
    "stop_url": "",
    "location_type": "0",
    "parent_station": "",
    "stop_timezone": "",
    "wheelchair_boarding": "0"
  },
  {
    "stop_id": "n982135818",
    "stop_code": "",
    "stop_name": "Vypin",
    "stop_desc": "",
    "stop_lat": "9.973546",
    "stop_lon": "76.244141",
    "zone_id": "",
    "stop_url": "",
    "location_type": "0",
    "parent_station": "",
    "stop_timezone": "",
    "wheelchair_boarding": "0"
  },
  {
    "stop_id": "n1049713235",
    "stop_code": "",
    "stop_name": "Palli",
    "stop_desc": "",
    "stop_lat": "10.1395161",
    "stop_lon": "76.1990351",
    "zone_id": "",
    "stop_url": "",
    "location_type": "0",
    "parent_station": "",
    "stop_timezone": "",
    "wheelchair_boarding": "0"
  },
  {
    "stop_id": "n1049713241",
    "stop_code": "",
    "stop_name": "KMK Junction",
    "stop_desc": "",
    "stop_lat": "10.1445191",
    "stop_lon": "76.2264466",
    "zone_id": "",
    "stop_url": "",
    "location_type": "0",
    "parent_station": "",
    "stop_timezone": "",
    "wheelchair_boarding": "0"
  },
  {
    "stop_id": "n1190898939",
    "stop_code": "",
    "stop_name": "Thiruvankulam Junction",
    "stop_desc": "",
    "stop_lat": "9.9432581",
    "stop_lon": "76.3739987",
    "zone_id": "",
    "stop_url": "",
    "location_type": "0",
    "parent_station": "",
    "stop_timezone": "",
    "wheelchair_boarding": "0"
  },
  {
    "stop_id": "n2101122702",
    "stop_code": "",
    "stop_name": "Karavatte Kurish",
    "stop_desc": "",
    "stop_lat": "9.9015568",
    "stop_lon": "76.3929721",
    "zone_id": "",
    "stop_url": "",
    "location_type": "0",
    "parent_station": "",
    "stop_timezone": "",
    "wheelchair_boarding": "0"
  },
  {
    "stop_id": "n2101122705",
    "stop_code": "",
    "stop_name": "Thuppampady",
    "stop_desc": "",
    "stop_lat": "9.9137798",
    "stop_lon": "76.4120149",
    "zone_id": "",
    "stop_url": "",
    "location_type": "0",
    "parent_station": "",
    "stop_timezone": "",
    "wheelchair_boarding": "0"
  },
  {
    "stop_id": "n2101143428",
    "stop_code": "",
    "stop_name": "Vettikkal",
    "stop_desc": "",
    "stop_lat": "9.9145949",
    "stop_lon": "76.4214193",
    "zone_id": "",
    "stop_url": "",
    "location_type": "0",
    "parent_station": "",
    "stop_timezone": "",
    "wheelchair_boarding": "0"
  },
  {
    "stop_id": "n2376855121",
    "stop_code": "",
    "stop_name": "Karingachira",
    "stop_desc": "",
    "stop_lat": "9.9516908",
    "stop_lon": "76.3583345",
    "zone_id": "",
    "stop_url": "",
    "location_type": "0",
    "parent_station": "",
    "stop_timezone": "",
    "wheelchair_boarding": "0"
  },
  {
    "stop_id": "n2376866788",
    "stop_code": "",
    "stop_name": "Railway Station",
    "stop_desc": "",
    "stop_lat": "9.9468775",
    "stop_lon": "76.3532115",
    "zone_id": "",
    "stop_url": "",
    "location_type": "0",
    "parent_station": "",
    "stop_timezone": "",
    "wheelchair_boarding": "0"
  },
  {
    "stop_id": "n2391343016",
    "stop_code": "",
    "stop_name": "Koovapadam",
    "stop_desc": "",
    "stop_lat": "9.9520508",
    "stop_lon": "76.2537227",
    "zone_id": "",
    "stop_url": "",
    "location_type": "0",
    "parent_station": "",
    "stop_timezone": "",
    "wheelchair_boarding": "0"
  },
  {
    "stop_id": "n2391343017",
    "stop_code": "",
    "stop_name": "Koovapadam",
    "stop_desc": "",
    "stop_lat": "9.9519841",
    "stop_lon": "76.2524456",
    "zone_id": "",
    "stop_url": "",
    "location_type": "0",
    "parent_station": "",
    "stop_timezone": "",
    "wheelchair_boarding": "0"
  },
  {
    "stop_id": "n2391343018",
    "stop_code": "",
    "stop_name": "Paravana Mukk",
    "stop_desc": "",
    "stop_lat": "9.9520508",
    "stop_lon": "76.2557319",
    "zone_id": "",
    "stop_url": "",
    "location_type": "0",
    "parent_station": "",
    "stop_timezone": "",
    "wheelchair_boarding": "0"
  },
  {
    "stop_id": "n2391343019",
    "stop_code": "",
    "stop_name": "Kappalandi Mukk",
    "stop_desc": "",
    "stop_lat": "9.9519132",
    "stop_lon": "76.2576994",
    "zone_id": "",
    "stop_url": "",
    "location_type": "0",
    "parent_station": "",
    "stop_timezone": "",
    "wheelchair_boarding": "0"
  },
  {
    "stop_id": "n2391343021",
    "stop_code": "",
    "stop_name": "Chakkamadam",
    "stop_desc": "",
    "stop_lat": "9.9550343",
    "stop_lon": "76.2578416",
    "zone_id": "",
    "stop_url": "",
    "location_type": "0",
    "parent_station": "",
    "stop_timezone": "",
    "wheelchair_boarding": "0"
  },
  {
    "stop_id": "n2391343022",
    "stop_code": "",
    "stop_name": "Star Junction",
    "stop_desc": "",
    "stop_lat": "9.9591664",
    "stop_lon": "76.2578919",
    "zone_id": "",
    "stop_url": "",
    "location_type": "0",
    "parent_station": "",
    "stop_timezone": "",
    "wheelchair_boarding": "0"
  },
  {
    "stop_id": "n2391343057",
    "stop_code": "",
    "stop_name": "Panayappilly",
    "stop_desc": "",
    "stop_lat": "9.9496497",
    "stop_lon": "76.2556511",
    "zone_id": "",
    "stop_url": "",
    "location_type": "0",
    "parent_station": "",
    "stop_timezone": "",
    "wheelchair_boarding": "0"
  },
  {
    "stop_id": "n2449090672",
    "stop_code": "",
    "stop_name": "Anappara",
    "stop_desc": "",
    "stop_lat": "10.1749432",
    "stop_lon": "76.3530024",
    "zone_id": "",
    "stop_url": "",
    "location_type": "0",
    "parent_station": "",
    "stop_timezone": "",
    "wheelchair_boarding": "0"
  },
  {
    "stop_id": "n2580734253",
    "stop_code": "",
    "stop_name": "Pipeline Junction",
    "stop_desc": "",
    "stop_lat": "10.0051815",
    "stop_lon": "76.3128361",
    "zone_id": "",
    "stop_url": "",
    "location_type": "0",
    "parent_station": "",
    "stop_timezone": "",
    "wheelchair_boarding": "0"
  },
  {
    "stop_id": "n2580734650",
    "stop_code": "",
    "stop_name": "Ernakulam Medical Centre",
    "stop_desc": "",
    "stop_lat": "9.99898",
    "stop_lon": "76.3138595",
    "zone_id": "",
    "stop_url": "",
    "location_type": "0",
    "parent_station": "",
    "stop_timezone": "",
    "wheelchair_boarding": "0"
  },
  {
    "stop_id": "n2580734682",
    "stop_code": "",
    "stop_name": "Ernakulam Medical Centre",
    "stop_desc": "",
    "stop_lat": "9.999015",
    "stop_lon": "76.3140901",
    "zone_id": "",
    "stop_url": "",
    "location_type": "0",
    "parent_station": "",
    "stop_timezone": "",
    "wheelchair_boarding": "0"
  },
  {
    "stop_id": "n2712142797",
    "stop_code": "",
    "stop_name": "Menaka",
    "stop_desc": "",
    "stop_lat": "9.9780238",
    "stop_lon": "76.2770264",
    "zone_id": "",
    "stop_url": "",
    "location_type": "0",
    "parent_station": "",
    "stop_timezone": "",
    "wheelchair_boarding": "0"
  },
  {
    "stop_id": "n2712147178",
    "stop_code": "",
    "stop_name": "Ernakulam South",
    "stop_desc": "",
    "stop_lat": "9.9680734",
    "stop_lon": "76.2880821",
    "zone_id": "",
    "stop_url": "",
    "location_type": "0",
    "parent_station": "",
    "stop_timezone": "",
    "wheelchair_boarding": "0"
  },
  {
    "stop_id": "n2744190416",
    "stop_code": "",
    "stop_name": "Vaduthala Valavu",
    "stop_desc": "",
    "stop_lat": "10.0189006",
    "stop_lon": "76.2750339",
    "zone_id": "",
    "stop_url": "",
    "location_type": "0",
    "parent_station": "",
    "stop_timezone": "",
    "wheelchair_boarding": "0"
  },
  {
    "stop_id": "n2744199202",
    "stop_code": "",
    "stop_name": "Don Bosco",
    "stop_desc": "",
    "stop_lat": "10.0140145",
    "stop_lon": "76.2768412",
    "zone_id": "",
    "stop_url": "",
    "location_type": "0",
    "parent_station": "",
    "stop_timezone": "",
    "wheelchair_boarding": "0"
  },
  {
    "stop_id": "n2744199206",
    "stop_code": "",
    "stop_name": "Vaduthala Gate",
    "stop_desc": "",
    "stop_lat": "10.0131716",
    "stop_lon": "76.2767579",
    "zone_id": "",
    "stop_url": "",
    "location_type": "0",
    "parent_station": "",
    "stop_timezone": "",
    "wheelchair_boarding": "0"
  },
  {
    "stop_id": "n2744199210",
    "stop_code": "",
    "stop_name": "Lourde's Hospital",
    "stop_desc": "",
    "stop_lat": "10.0065637",
    "stop_lon": "76.2782977",
    "zone_id": "",
    "stop_url": "",
    "location_type": "0",
    "parent_station": "",
    "stop_timezone": "",
    "wheelchair_boarding": "0"
  },
  {
    "stop_id": "n2744203515",
    "stop_code": "",
    "stop_name": "Pachalam Junction",
    "stop_desc": "",
    "stop_lat": "10.0012646",
    "stop_lon": "76.2795898",
    "zone_id": "",
    "stop_url": "",
    "location_type": "0",
    "parent_station": "",
    "stop_timezone": "",
    "wheelchair_boarding": "0"
  },
  {
    "stop_id": "n2744203523",
    "stop_code": "",
    "stop_name": "Pachalam Junction",
    "stop_desc": "",
    "stop_lat": "10.0014412",
    "stop_lon": "76.2792621",
    "zone_id": "",
    "stop_url": "",
    "location_type": "0",
    "parent_station": "",
    "stop_timezone": "",
    "wheelchair_boarding": "0"
  },
  {
    "stop_id": "n2744203531",
    "stop_code": "",
    "stop_name": "Ayyappankavu",
    "stop_desc": "",
    "stop_lat": "9.9959899",
    "stop_lon": "76.2805729",
    "zone_id": "",
    "stop_url": "",
    "location_type": "0",
    "parent_station": "",
    "stop_timezone": "",
    "wheelchair_boarding": "0"
  },
  {
    "stop_id": "n2780838959",
    "stop_code": "",
    "stop_name": "Kaloor",
    "stop_desc": "",
    "stop_lat": "9.9941308",
    "stop_lon": "76.291962",
    "zone_id": "",
    "stop_url": "",
    "location_type": "0",
    "parent_station": "",
    "stop_timezone": "",
    "wheelchair_boarding": "1"
  },
  {
    "stop_id": "n2780917203",
    "stop_code": "",
    "stop_name": "KSRTC Bus Station",
    "stop_desc": "",
    "stop_lat": "10.1449925",
    "stop_lon": "76.2317568",
    "zone_id": "",
    "stop_url": "",
    "location_type": "0",
    "parent_station": "",
    "stop_timezone": "",
    "wheelchair_boarding": "0"
  },
  {
    "stop_id": "n2923441825",
    "stop_code": "6",
    "stop_name": "Vyttila",
    "stop_desc": "",
    "stop_lat": "9.9687963",
    "stop_lon": "76.3217495",
    "zone_id": "",
    "stop_url": "",
    "location_type": "0",
    "parent_station": "",
    "stop_timezone": "",
    "wheelchair_boarding": "0"
  },
  {
    "stop_id": "n2928886789",
    "stop_code": "",
    "stop_name": "Nayarambalam",
    "stop_desc": "",
    "stop_lat": "10.0717346",
    "stop_lon": "76.2119072",
    "zone_id": "",
    "stop_url": "",
    "location_type": "0",
    "parent_station": "",
    "stop_timezone": "",
    "wheelchair_boarding": "0"
  },
  {
    "stop_id": "n2965439530",
    "stop_code": "",
    "stop_name": "Vedimara",
    "stop_desc": "",
    "stop_lat": "10.1484765",
    "stop_lon": "76.2447257",
    "zone_id": "",
    "stop_url": "",
    "location_type": "0",
    "parent_station": "",
    "stop_timezone": "",
    "wheelchair_boarding": "0"
  },
  {
    "stop_id": "n2965446278",
    "stop_code": "",
    "stop_name": "Chendamangalam Junction",
    "stop_desc": "",
    "stop_lat": "10.1489359",
    "stop_lon": "76.2350714",
    "zone_id": "",
    "stop_url": "",
    "location_type": "0",
    "parent_station": "",
    "stop_timezone": "",
    "wheelchair_boarding": "0"
  },
  {
    "stop_id": "n2965448787",
    "stop_code": "",
    "stop_name": "Mannam",
    "stop_desc": "",
    "stop_lat": "10.1464052",
    "stop_lon": "76.2532494",
    "zone_id": "",
    "stop_url": "",
    "location_type": "0",
    "parent_station": "",
    "stop_timezone": "",
    "wheelchair_boarding": "0"
  },
  {
    "stop_id": "n2965453933",
    "stop_code": "",
    "stop_name": "Paarappuram",
    "stop_desc": "",
    "stop_lat": "10.1458867",
    "stop_lon": "76.2570175",
    "zone_id": "",
    "stop_url": "",
    "location_type": "0",
    "parent_station": "",
    "stop_timezone": "",
    "wheelchair_boarding": "0"
  },
  {
    "stop_id": "n2965463994",
    "stop_code": "",
    "stop_name": "Karichira",
    "stop_desc": "",
    "stop_lat": "10.1333306",
    "stop_lon": "76.2751358",
    "zone_id": "",
    "stop_url": "",
    "location_type": "0",
    "parent_station": "",
    "stop_timezone": "",
    "wheelchair_boarding": "0"
  },
  {
    "stop_id": "n2965467030",
    "stop_code": "",
    "stop_name": "Purapillikavu",
    "stop_desc": "",
    "stop_lat": "10.1308355",
    "stop_lon": "76.2875338",
    "zone_id": "",
    "stop_url": "",
    "location_type": "0",
    "parent_station": "",
    "stop_timezone": "",
    "wheelchair_boarding": "0"
  },
  {
    "stop_id": "n2965468064",
    "stop_code": "",
    "stop_name": "Thattampady",
    "stop_desc": "",
    "stop_lat": "10.1311535",
    "stop_lon": "76.2825317",
    "zone_id": "",
    "stop_url": "",
    "location_type": "0",
    "parent_station": "",
    "stop_timezone": "",
    "wheelchair_boarding": "0"
  },
  {
    "stop_id": "n2965468920",
    "stop_code": "",
    "stop_name": "Marottichuvadu",
    "stop_desc": "",
    "stop_lat": "10.1319667",
    "stop_lon": "76.2793374",
    "zone_id": "",
    "stop_url": "",
    "location_type": "0",
    "parent_station": "",
    "stop_timezone": "",
    "wheelchair_boarding": "0"
  },
  {
    "stop_id": "n2965470242",
    "stop_code": "",
    "stop_name": "Karumaloor",
    "stop_desc": "",
    "stop_lat": "10.130257",
    "stop_lon": "76.2931177",
    "zone_id": "",
    "stop_url": "",
    "location_type": "0",
    "parent_station": "",
    "stop_timezone": "",
    "wheelchair_boarding": "0"
  },
  {
    "stop_id": "n3276153651",
    "stop_code": "",
    "stop_name": "Sub Station",
    "stop_desc": "",
    "stop_lat": "9.9629622",
    "stop_lon": "76.3183249",
    "zone_id": "",
    "stop_url": "",
    "location_type": "0",
    "parent_station": "",
    "stop_timezone": "",
    "wheelchair_boarding": "0"
  },
  {
    "stop_id": "n3367437300",
    "stop_code": "",
    "stop_name": "Koonammavu",
    "stop_desc": "",
    "stop_lat": "10.1005014",
    "stop_lon": "76.2639074",
    "zone_id": "",
    "stop_url": "",
    "location_type": "0",
    "parent_station": "",
    "stop_timezone": "",
    "wheelchair_boarding": "0"
  },
  {
    "stop_id": "n3670738749",
    "stop_code": "",
    "stop_name": "Manjaly Akkara",
    "stop_desc": "",
    "stop_lat": "10.1506466",
    "stop_lon": "76.2683658",
    "zone_id": "",
    "stop_url": "",
    "location_type": "0",
    "parent_station": "",
    "stop_timezone": "",
    "wheelchair_boarding": "0"
  },
  {
    "stop_id": "n3676241133",
    "stop_code": "",
    "stop_name": "Mariyapadi",
    "stop_desc": "",
    "stop_lat": "10.1264765",
    "stop_lon": "76.3209677",
    "zone_id": "",
    "stop_url": "",
    "location_type": "0",
    "parent_station": "",
    "stop_timezone": "",
    "wheelchair_boarding": "0"
  },
  {
    "stop_id": "n3676244636",
    "stop_code": "",
    "stop_name": "Manakkapadi",
    "stop_desc": "",
    "stop_lat": "10.1368908",
    "stop_lon": "76.2696975",
    "zone_id": "",
    "stop_url": "",
    "location_type": "0",
    "parent_station": "",
    "stop_timezone": "",
    "wheelchair_boarding": "0"
  },
  {
    "stop_id": "n3676244647",
    "stop_code": "",
    "stop_name": "Namborichante aal",
    "stop_desc": "",
    "stop_lat": "10.1485159",
    "stop_lon": "76.2279749",
    "zone_id": "",
    "stop_url": "",
    "location_type": "0",
    "parent_station": "",
    "stop_timezone": "",
    "wheelchair_boarding": "0"
  },
  {
    "stop_id": "n3676397041",
    "stop_code": "",
    "stop_name": "Chendamangalam Junction",
    "stop_desc": "",
    "stop_lat": "10.149268",
    "stop_lon": "76.2356058",
    "zone_id": "",
    "stop_url": "",
    "location_type": "0",
    "parent_station": "",
    "stop_timezone": "",
    "wheelchair_boarding": "0"
  },
  {
    "stop_id": "n3711605443",
    "stop_code": "",
    "stop_name": "Civil Station",
    "stop_desc": "",
    "stop_lat": "10.1488947",
    "stop_lon": "76.2304841",
    "zone_id": "",
    "stop_url": "",
    "location_type": "0",
    "parent_station": "",
    "stop_timezone": "",
    "wheelchair_boarding": "0"
  },
  {
    "stop_id": "n3813525947",
    "stop_code": "",
    "stop_name": "Vai padi",
    "stop_desc": "",
    "stop_lat": "10.0397032",
    "stop_lon": "76.3007241",
    "zone_id": "",
    "stop_url": "",
    "location_type": "0",
    "parent_station": "",
    "stop_timezone": "",
    "wheelchair_boarding": "0"
  },
  {
    "stop_id": "n3844271357",
    "stop_code": "",
    "stop_name": "Chendamangalam Junction",
    "stop_desc": "",
    "stop_lat": "10.1496989",
    "stop_lon": "76.2349266",
    "zone_id": "",
    "stop_url": "",
    "location_type": "0",
    "parent_station": "",
    "stop_timezone": "",
    "wheelchair_boarding": "0"
  },
  {
    "stop_id": "n3864767757",
    "stop_code": "",
    "stop_name": "NGO Quarters",
    "stop_desc": "",
    "stop_lat": "10.0212159",
    "stop_lon": "76.3346249",
    "zone_id": "",
    "stop_url": "",
    "location_type": "0",
    "parent_station": "",
    "stop_timezone": "",
    "wheelchair_boarding": "0"
  },
  {
    "stop_id": "n3870727313",
    "stop_code": "",
    "stop_name": "Valappu",
    "stop_desc": "",
    "stop_lat": "10.0145846",
    "stop_lon": "76.2277549",
    "zone_id": "",
    "stop_url": "",
    "location_type": "0",
    "parent_station": "",
    "stop_timezone": "",
    "wheelchair_boarding": "0"
  },
  {
    "stop_id": "n3870727315",
    "stop_code": "",
    "stop_name": "Perumalppadi",
    "stop_desc": "",
    "stop_lat": "10.0254731",
    "stop_lon": "76.2236733",
    "zone_id": "",
    "stop_url": "",
    "location_type": "0",
    "parent_station": "",
    "stop_timezone": "",
    "wheelchair_boarding": "0"
  },
  {
    "stop_id": "n3886536252",
    "stop_code": "",
    "stop_name": "High Court Junction",
    "stop_desc": "",
    "stop_lat": "9.9834606",
    "stop_lon": "76.2742889",
    "zone_id": "",
    "stop_url": "",
    "location_type": "0",
    "parent_station": "",
    "stop_timezone": "",
    "wheelchair_boarding": "0"
  },
  {
    "stop_id": "n3996656188",
    "stop_code": "",
    "stop_name": "Thevara",
    "stop_desc": "",
    "stop_lat": "9.950119",
    "stop_lon": "76.2920811",
    "zone_id": "",
    "stop_url": "",
    "location_type": "0",
    "parent_station": "",
    "stop_timezone": "",
    "wheelchair_boarding": "0"
  },
  {
    "stop_id": "n3996661158",
    "stop_code": "",
    "stop_name": "Ravipuram",
    "stop_desc": "",
    "stop_lat": "9.9591537",
    "stop_lon": "76.2889962",
    "zone_id": "",
    "stop_url": "",
    "location_type": "0",
    "parent_station": "",
    "stop_timezone": "",
    "wheelchair_boarding": "0"
  },
  {
    "stop_id": "n4270131792",
    "stop_code": "",
    "stop_name": "Thettaly",
    "stop_desc": "",
    "stop_lat": "10.1307559",
    "stop_lon": "76.3902447",
    "zone_id": "",
    "stop_url": "",
    "location_type": "0",
    "parent_station": "",
    "stop_timezone": "",
    "wheelchair_boarding": "0"
  },
  {
    "stop_id": "n4270140391",
    "stop_code": "",
    "stop_name": "Kaipra",
    "stop_desc": "",
    "stop_lat": "10.1320525",
    "stop_lon": "76.3996667",
    "zone_id": "",
    "stop_url": "",
    "location_type": "0",
    "parent_station": "",
    "stop_timezone": "",
    "wheelchair_boarding": "0"
  },
  {
    "stop_id": "n4286649742",
    "stop_code": "",
    "stop_name": "Pazhamthottam",
    "stop_desc": "",
    "stop_lat": "10.0170702",
    "stop_lon": "76.4284047",
    "zone_id": "",
    "stop_url": "",
    "location_type": "0",
    "parent_station": "",
    "stop_timezone": "",
    "wheelchair_boarding": "0"
  },
  {
    "stop_id": "n4290205591",
    "stop_code": "",
    "stop_name": "Gandhipuram",
    "stop_desc": "",
    "stop_lat": "10.1223671",
    "stop_lon": "76.3668073",
    "zone_id": "",
    "stop_url": "",
    "location_type": "0",
    "parent_station": "",
    "stop_timezone": "",
    "wheelchair_boarding": "0"
  },
  {
    "stop_id": "n4290219991",
    "stop_code": "",
    "stop_name": "Nayathod Junction",
    "stop_desc": "",
    "stop_lat": "10.1858129",
    "stop_lon": "76.3973712",
    "zone_id": "",
    "stop_url": "",
    "location_type": "0",
    "parent_station": "",
    "stop_timezone": "",
    "wheelchair_boarding": "0"
  },
  {
    "stop_id": "n4291964895",
    "stop_code": "",
    "stop_name": "Kondotty",
    "stop_desc": "",
    "stop_lat": "10.1282229",
    "stop_lon": "76.3725752",
    "zone_id": "",
    "stop_url": "",
    "location_type": "0",
    "parent_station": "",
    "stop_timezone": "",
    "wheelchair_boarding": "0"
  },
  {
    "stop_id": "n4292013891",
    "stop_code": "",
    "stop_name": "Purayar",
    "stop_desc": "",
    "stop_lat": "10.1280053",
    "stop_lon": "76.3692844",
    "zone_id": "",
    "stop_url": "",
    "location_type": "0",
    "parent_station": "",
    "stop_timezone": "",
    "wheelchair_boarding": "0"
  },
  {
    "stop_id": "n4292039789",
    "stop_code": "",
    "stop_name": "Chembumukku",
    "stop_desc": "",
    "stop_lat": "10.0112802",
    "stop_lon": "76.3220348",
    "zone_id": "",
    "stop_url": "",
    "location_type": "0",
    "parent_station": "",
    "stop_timezone": "",
    "wheelchair_boarding": "0"
  },
  {
    "stop_id": "n4361725219",
    "stop_code": "",
    "stop_name": "Changampuzha Park",
    "stop_desc": "",
    "stop_lat": "10.0162866",
    "stop_lon": "76.3022933",
    "zone_id": "",
    "stop_url": "",
    "location_type": "0",
    "parent_station": "",
    "stop_timezone": "",
    "wheelchair_boarding": "0"
  },
  {
    "stop_id": "n4385198323",
    "stop_code": "",
    "stop_name": "Ambalathazham",
    "stop_desc": "",
    "stop_lat": "10.0181749",
    "stop_lon": "76.4268496",
    "zone_id": "",
    "stop_url": "",
    "location_type": "0",
    "parent_station": "",
    "stop_timezone": "",
    "wheelchair_boarding": "0"
  },
  {
    "stop_id": "n4419870996",
    "stop_code": "",
    "stop_name": "Paravoor Kavala",
    "stop_desc": "",
    "stop_lat": "10.1186635",
    "stop_lon": "76.3433064",
    "zone_id": "",
    "stop_url": "",
    "location_type": "0",
    "parent_station": "",
    "stop_timezone": "",
    "wheelchair_boarding": "0"
  },
  {
    "stop_id": "n4434161890",
    "stop_code": "",
    "stop_name": "Chegamanad",
    "stop_desc": "",
    "stop_lat": "10.1534743",
    "stop_lon": "76.3400561",
    "zone_id": "",
    "stop_url": "",
    "location_type": "0",
    "parent_station": "",
    "stop_timezone": "",
    "wheelchair_boarding": "0"
  },
  {
    "stop_id": "n4434162289",
    "stop_code": "",
    "stop_name": "Palapprassery",
    "stop_desc": "",
    "stop_lat": "10.1558501",
    "stop_lon": "76.3309535",
    "zone_id": "",
    "stop_url": "",
    "location_type": "0",
    "parent_station": "",
    "stop_timezone": "",
    "wheelchair_boarding": "0"
  },
  {
    "stop_id": "n4437337990",
    "stop_code": "",
    "stop_name": "Chunkam",
    "stop_desc": "",
    "stop_lat": "10.1567508",
    "stop_lon": "76.3265014",
    "zone_id": "",
    "stop_url": "",
    "location_type": "0",
    "parent_station": "",
    "stop_timezone": "",
    "wheelchair_boarding": "0"
  },
  {
    "stop_id": "n4471324994",
    "stop_code": "",
    "stop_name": "Mavelipuram Junction",
    "stop_desc": "",
    "stop_lat": "10.0226946",
    "stop_lon": "76.3412911",
    "zone_id": "",
    "stop_url": "",
    "location_type": "0",
    "parent_station": "",
    "stop_timezone": "",
    "wheelchair_boarding": "0"
  },
  {
    "stop_id": "n4471324995",
    "stop_code": "",
    "stop_name": "Mavelipuram Junction",
    "stop_desc": "",
    "stop_lat": "10.0231787",
    "stop_lon": "76.3411396",
    "zone_id": "",
    "stop_url": "",
    "location_type": "0",
    "parent_station": "",
    "stop_timezone": "",
    "wheelchair_boarding": "0"
  },
  {
    "stop_id": "n4548818893",
    "stop_code": "",
    "stop_name": "HMT Junction",
    "stop_desc": "",
    "stop_lat": "10.0552166",
    "stop_lon": "76.322055",
    "zone_id": "",
    "stop_url": "",
    "location_type": "0",
    "parent_station": "",
    "stop_timezone": "",
    "wheelchair_boarding": "0"
  },
  {
    "stop_id": "n4548830490",
    "stop_code": "",
    "stop_name": "HMT Junction",
    "stop_desc": "",
    "stop_lat": "10.054649",
    "stop_lon": "76.3218929",
    "zone_id": "",
    "stop_url": "",
    "location_type": "0",
    "parent_station": "",
    "stop_timezone": "",
    "wheelchair_boarding": "0"
  },
  {
    "stop_id": "n4561240974",
    "stop_code": "",
    "stop_name": "Hospital Junction",
    "stop_desc": "",
    "stop_lat": "9.9717809",
    "stop_lon": "76.2822201",
    "zone_id": "",
    "stop_url": "",
    "location_type": "0",
    "parent_station": "",
    "stop_timezone": "",
    "wheelchair_boarding": "0"
  },
  {
    "stop_id": "n4639553292",
    "stop_code": "",
    "stop_name": "Chirattapalam",
    "stop_desc": "",
    "stop_lat": "9.9607346",
    "stop_lon": "76.2429257",
    "zone_id": "",
    "stop_url": "",
    "location_type": "0",
    "parent_station": "",
    "stop_timezone": "",
    "wheelchair_boarding": "0"
  },
  {
    "stop_id": "n4639553293",
    "stop_code": "",
    "stop_name": "Njaliparambu",
    "stop_desc": "",
    "stop_lat": "9.963287",
    "stop_lon": "76.2431075",
    "zone_id": "",
    "stop_url": "",
    "location_type": "0",
    "parent_station": "",
    "stop_timezone": "",
    "wheelchair_boarding": "0"
  },
  {
    "stop_id": "n4639557089",
    "stop_code": "",
    "stop_name": "Mattancherry",
    "stop_desc": "",
    "stop_lat": "9.9587012",
    "stop_lon": "76.2599008",
    "zone_id": "",
    "stop_url": "",
    "location_type": "0",
    "parent_station": "",
    "stop_timezone": "",
    "wheelchair_boarding": "0"
  },
  {
    "stop_id": "n4665138938",
    "stop_code": "",
    "stop_name": "KMK Junction",
    "stop_desc": "",
    "stop_lat": "10.1452545",
    "stop_lon": "76.2267346",
    "zone_id": "",
    "stop_url": "",
    "location_type": "0",
    "parent_station": "",
    "stop_timezone": "",
    "wheelchair_boarding": "0"
  },
  {
    "stop_id": "n4665138939",
    "stop_code": "",
    "stop_name": "KMK Junction",
    "stop_desc": "",
    "stop_lat": "10.1446931",
    "stop_lon": "76.2277819",
    "zone_id": "",
    "stop_url": "",
    "location_type": "0",
    "parent_station": "",
    "stop_timezone": "",
    "wheelchair_boarding": "0"
  },
  {
    "stop_id": "n4694147800",
    "stop_code": "",
    "stop_name": "Munambam Ferry",
    "stop_desc": "",
    "stop_lat": "10.1829987",
    "stop_lon": "76.173772",
    "zone_id": "",
    "stop_url": "",
    "location_type": "0",
    "parent_station": "",
    "stop_timezone": "",
    "wheelchair_boarding": "0"
  },
  {
    "stop_id": "n4695161877",
    "stop_code": "",
    "stop_name": "Ambattukavu",
    "stop_desc": "",
    "stop_lat": "10.080671",
    "stop_lon": "76.3392534",
    "zone_id": "",
    "stop_url": "",
    "location_type": "0",
    "parent_station": "",
    "stop_timezone": "",
    "wheelchair_boarding": "0"
  },
  {
    "stop_id": "n4708279359",
    "stop_code": "",
    "stop_name": "Cheranelloor Signal",
    "stop_desc": "",
    "stop_lat": "10.0622019",
    "stop_lon": "76.2881063",
    "zone_id": "",
    "stop_url": "",
    "location_type": "0",
    "parent_station": "",
    "stop_timezone": "",
    "wheelchair_boarding": "0"
  },
  {
    "stop_id": "n4708279361",
    "stop_code": "",
    "stop_name": "Naalam Mile",
    "stop_desc": "",
    "stop_lat": "10.1145735",
    "stop_lon": "76.2596751",
    "zone_id": "",
    "stop_url": "",
    "location_type": "0",
    "parent_station": "",
    "stop_timezone": "",
    "wheelchair_boarding": "0"
  },
  {
    "stop_id": "n4708279363",
    "stop_code": "",
    "stop_name": "Millupadi",
    "stop_desc": "",
    "stop_lat": "10.1218792",
    "stop_lon": "76.2546248",
    "zone_id": "",
    "stop_url": "",
    "location_type": "0",
    "parent_station": "",
    "stop_timezone": "",
    "wheelchair_boarding": "0"
  },
  {
    "stop_id": "n4708279366",
    "stop_code": "",
    "stop_name": "Khandakarnan veli",
    "stop_desc": "",
    "stop_lat": "10.1274256",
    "stop_lon": "76.2434247",
    "zone_id": "",
    "stop_url": "",
    "location_type": "0",
    "parent_station": "",
    "stop_timezone": "",
    "wheelchair_boarding": "0"
  },
  {
    "stop_id": "n4708279367",
    "stop_code": "",
    "stop_name": "Vazhikulangara",
    "stop_desc": "",
    "stop_lat": "10.1341612",
    "stop_lon": "76.2400735",
    "zone_id": "",
    "stop_url": "",
    "location_type": "0",
    "parent_station": "",
    "stop_timezone": "",
    "wheelchair_boarding": "0"
  },
  {
    "stop_id": "n4708279877",
    "stop_code": "",
    "stop_name": "Kochal",
    "stop_desc": "",
    "stop_lat": "10.1124944",
    "stop_lon": "76.2603016",
    "zone_id": "",
    "stop_url": "",
    "location_type": "0",
    "parent_station": "",
    "stop_timezone": "",
    "wheelchair_boarding": "0"
  },
  {
    "stop_id": "n4708733903",
    "stop_code": "",
    "stop_name": "Varapuzha",
    "stop_desc": "",
    "stop_lat": "10.0786023",
    "stop_lon": "76.2750767",
    "zone_id": "",
    "stop_url": "",
    "location_type": "0",
    "parent_station": "",
    "stop_timezone": "",
    "wheelchair_boarding": "0"
  },
  {
    "stop_id": "n4716589462",
    "stop_code": "",
    "stop_name": "Kunnukara",
    "stop_desc": "",
    "stop_lat": "10.1551268",
    "stop_lon": "76.2952168",
    "zone_id": "",
    "stop_url": "",
    "location_type": "0",
    "parent_station": "",
    "stop_timezone": "",
    "wheelchair_boarding": "0"
  },
  {
    "stop_id": "n4716589463",
    "stop_code": "",
    "stop_name": "Thelathuruth",
    "stop_desc": "",
    "stop_lat": "10.1538024",
    "stop_lon": "76.2736708",
    "zone_id": "",
    "stop_url": "",
    "location_type": "0",
    "parent_station": "",
    "stop_timezone": "",
    "wheelchair_boarding": "0"
  },
  {
    "stop_id": "n4716591373",
    "stop_code": "",
    "stop_name": "Chalakka Schoolpadi",
    "stop_desc": "",
    "stop_lat": "10.1549379",
    "stop_lon": "76.2798837",
    "zone_id": "",
    "stop_url": "",
    "location_type": "0",
    "parent_station": "",
    "stop_timezone": "",
    "wheelchair_boarding": "0"
  },
  {
    "stop_id": "n4716858152",
    "stop_code": "",
    "stop_name": "Kuttiyal",
    "stop_desc": "",
    "stop_lat": "10.1561889",
    "stop_lon": "76.311397",
    "zone_id": "",
    "stop_url": "",
    "location_type": "0",
    "parent_station": "",
    "stop_timezone": "",
    "wheelchair_boarding": "0"
  },
  {
    "stop_id": "n4729063046",
    "stop_code": "",
    "stop_name": "Janatha",
    "stop_desc": "",
    "stop_lat": "10.1209644",
    "stop_lon": "76.1991859",
    "zone_id": "",
    "stop_url": "",
    "location_type": "0",
    "parent_station": "",
    "stop_timezone": "",
    "wheelchair_boarding": "0"
  },
  {
    "stop_id": "n4729063048",
    "stop_code": "",
    "stop_name": "Edavanakad Palli",
    "stop_desc": "",
    "stop_lat": "10.0827527",
    "stop_lon": "76.2096157",
    "zone_id": "",
    "stop_url": "",
    "location_type": "0",
    "parent_station": "",
    "stop_timezone": "",
    "wheelchair_boarding": "0"
  },
  {
    "stop_id": "n4729063216",
    "stop_code": "",
    "stop_name": "Ayyampilly",
    "stop_desc": "",
    "stop_lat": "10.1264174",
    "stop_lon": "76.1983488",
    "zone_id": "",
    "stop_url": "",
    "location_type": "0",
    "parent_station": "",
    "stop_timezone": "",
    "wheelchair_boarding": "0"
  },
  {
    "stop_id": "n4729063219",
    "stop_code": "",
    "stop_name": "Aniyal",
    "stop_desc": "",
    "stop_lat": "10.0790683",
    "stop_lon": "76.2105579",
    "zone_id": "",
    "stop_url": "",
    "location_type": "0",
    "parent_station": "",
    "stop_timezone": "",
    "wheelchair_boarding": "0"
  },
  {
    "stop_id": "n4729063228",
    "stop_code": "",
    "stop_name": "ATH",
    "stop_desc": "",
    "stop_lat": "10.066506",
    "stop_lon": "76.2129234",
    "zone_id": "",
    "stop_url": "",
    "location_type": "0",
    "parent_station": "",
    "stop_timezone": "",
    "wheelchair_boarding": "0"
  },
  {
    "stop_id": "n4729063558",
    "stop_code": "",
    "stop_name": "Njarackal",
    "stop_desc": "",
    "stop_lat": "10.0472547",
    "stop_lon": "76.2172102",
    "zone_id": "",
    "stop_url": "",
    "location_type": "0",
    "parent_station": "",
    "stop_timezone": "",
    "wheelchair_boarding": "0"
  },
  {
    "stop_id": "n4729546009",
    "stop_code": "",
    "stop_name": "AEO Office",
    "stop_desc": "",
    "stop_lat": "10.0874239",
    "stop_lon": "76.2085846",
    "zone_id": "",
    "stop_url": "",
    "location_type": "0",
    "parent_station": "",
    "stop_timezone": "",
    "wheelchair_boarding": "0"
  },
  {
    "stop_id": "n4731124415",
    "stop_code": "",
    "stop_name": "Municipal Junction",
    "stop_desc": "",
    "stop_lat": "10.1480679",
    "stop_lon": "76.2247396",
    "zone_id": "",
    "stop_url": "",
    "location_type": "0",
    "parent_station": "",
    "stop_timezone": "",
    "wheelchair_boarding": "0"
  },
  {
    "stop_id": "n4731125089",
    "stop_code": "",
    "stop_name": "Bharanimukku",
    "stop_desc": "",
    "stop_lat": "10.1688454",
    "stop_lon": "76.2344303",
    "zone_id": "",
    "stop_url": "",
    "location_type": "0",
    "parent_station": "",
    "stop_timezone": "",
    "wheelchair_boarding": "0"
  },
  {
    "stop_id": "n4731125113",
    "stop_code": "",
    "stop_name": "Municipal Junction",
    "stop_desc": "",
    "stop_lat": "10.1485661",
    "stop_lon": "76.2262959",
    "zone_id": "",
    "stop_url": "",
    "location_type": "0",
    "parent_station": "",
    "stop_timezone": "",
    "wheelchair_boarding": "0"
  },
  {
    "stop_id": "n4731125541",
    "stop_code": "",
    "stop_name": "Vedimara",
    "stop_desc": "",
    "stop_lat": "10.1487134",
    "stop_lon": "76.2441192",
    "zone_id": "",
    "stop_url": "",
    "location_type": "0",
    "parent_station": "",
    "stop_timezone": "",
    "wheelchair_boarding": "0"
  },
  {
    "stop_id": "n4731125622",
    "stop_code": "",
    "stop_name": "Thekkethazham",
    "stop_desc": "",
    "stop_lat": "10.1500494",
    "stop_lon": "76.2633743",
    "zone_id": "",
    "stop_url": "",
    "location_type": "0",
    "parent_station": "",
    "stop_timezone": "",
    "wheelchair_boarding": "0"
  },
  {
    "stop_id": "n4731126041",
    "stop_code": "",
    "stop_name": "Makkanayi Junction",
    "stop_desc": "",
    "stop_lat": "10.1496737",
    "stop_lon": "76.2551481",
    "zone_id": "",
    "stop_url": "",
    "location_type": "0",
    "parent_station": "",
    "stop_timezone": "",
    "wheelchair_boarding": "0"
  },
  {
    "stop_id": "n4731126321",
    "stop_code": "",
    "stop_name": "SNGIST",
    "stop_desc": "",
    "stop_lat": "10.1498733",
    "stop_lon": "76.2672131",
    "zone_id": "",
    "stop_url": "",
    "location_type": "0",
    "parent_station": "",
    "stop_timezone": "",
    "wheelchair_boarding": "0"
  },
  {
    "stop_id": "n4733928387",
    "stop_code": "",
    "stop_name": "Manjumel Kavala",
    "stop_desc": "",
    "stop_lat": "10.0580774",
    "stop_lon": "76.2907347",
    "zone_id": "",
    "stop_url": "",
    "location_type": "0",
    "parent_station": "",
    "stop_timezone": "",
    "wheelchair_boarding": "0"
  },
  {
    "stop_id": "n4735966321",
    "stop_code": "",
    "stop_name": "Jose Junction",
    "stop_desc": "",
    "stop_lat": "9.9672944",
    "stop_lon": "76.2862212",
    "zone_id": "",
    "stop_url": "",
    "location_type": "0",
    "parent_station": "",
    "stop_timezone": "",
    "wheelchair_boarding": "0"
  },
  {
    "stop_id": "n4745604977",
    "stop_code": "",
    "stop_name": "Thelathuruth",
    "stop_desc": "",
    "stop_lat": "10.1536822",
    "stop_lon": "76.2736147",
    "zone_id": "",
    "stop_url": "",
    "location_type": "0",
    "parent_station": "",
    "stop_timezone": "",
    "wheelchair_boarding": "0"
  },
  {
    "stop_id": "n4745634832",
    "stop_code": "",
    "stop_name": "Chalakka",
    "stop_desc": "",
    "stop_lat": "10.1554876",
    "stop_lon": "76.2845243",
    "zone_id": "",
    "stop_url": "",
    "location_type": "0",
    "parent_station": "",
    "stop_timezone": "",
    "wheelchair_boarding": "0"
  },
  {
    "stop_id": "n4745634833",
    "stop_code": "",
    "stop_name": "Chalakka",
    "stop_desc": "",
    "stop_lat": "10.1555456",
    "stop_lon": "76.2844347",
    "zone_id": "",
    "stop_url": "",
    "location_type": "0",
    "parent_station": "",
    "stop_timezone": "",
    "wheelchair_boarding": "0"
  },
  {
    "stop_id": "n4753199419",
    "stop_code": "",
    "stop_name": "St Theresas College",
    "stop_desc": "",
    "stop_lat": "9.9752779",
    "stop_lon": "76.2785881",
    "zone_id": "",
    "stop_url": "",
    "location_type": "0",
    "parent_station": "",
    "stop_timezone": "",
    "wheelchair_boarding": "0"
  },
  {
    "stop_id": "n4769428928",
    "stop_code": "",
    "stop_name": "Edappally Junction",
    "stop_desc": "",
    "stop_lat": "10.0250912",
    "stop_lon": "76.3073159",
    "zone_id": "",
    "stop_url": "",
    "location_type": "0",
    "parent_station": "",
    "stop_timezone": "",
    "wheelchair_boarding": "0"
  },
  {
    "stop_id": "n4769428932",
    "stop_code": "",
    "stop_name": "Kunnumpuram",
    "stop_desc": "",
    "stop_lat": "10.0432261",
    "stop_lon": "76.2990611",
    "zone_id": "",
    "stop_url": "",
    "location_type": "0",
    "parent_station": "",
    "stop_timezone": "",
    "wheelchair_boarding": "0"
  },
  {
    "stop_id": "n4769436232",
    "stop_code": "",
    "stop_name": "Petta",
    "stop_desc": "",
    "stop_lat": "9.9501589",
    "stop_lon": "76.3320668",
    "zone_id": "",
    "stop_url": "",
    "location_type": "0",
    "parent_station": "",
    "stop_timezone": "",
    "wheelchair_boarding": "0"
  },
  {
    "stop_id": "n4769436233",
    "stop_code": "",
    "stop_name": "Champakkara",
    "stop_desc": "",
    "stop_lat": "9.9547409",
    "stop_lon": "76.3275696",
    "zone_id": "",
    "stop_url": "",
    "location_type": "0",
    "parent_station": "",
    "stop_timezone": "",
    "wheelchair_boarding": "0"
  },
  {
    "stop_id": "n4769436235",
    "stop_code": "",
    "stop_name": "Vytilla Junction",
    "stop_desc": "",
    "stop_lat": "9.969624",
    "stop_lon": "76.3179598",
    "zone_id": "",
    "stop_url": "",
    "location_type": "0",
    "parent_station": "",
    "stop_timezone": "",
    "wheelchair_boarding": "0"
  },
  {
    "stop_id": "n4792523923",
    "stop_code": "",
    "stop_name": "Kochveli Junction",
    "stop_desc": "",
    "stop_lat": "9.8347671",
    "stop_lon": "76.3093102",
    "zone_id": "",
    "stop_url": "",
    "location_type": "0",
    "parent_station": "",
    "stop_timezone": "",
    "wheelchair_boarding": "0"
  },
  {
    "stop_id": "n4792530422",
    "stop_code": "",
    "stop_name": "Aroor Bypass",
    "stop_desc": "",
    "stop_lat": "9.878038",
    "stop_lon": "76.3038187",
    "zone_id": "",
    "stop_url": "",
    "location_type": "0",
    "parent_station": "",
    "stop_timezone": "",
    "wheelchair_boarding": "0"
  },
  {
    "stop_id": "n4805940485",
    "stop_code": "",
    "stop_name": "Kunnumpuram",
    "stop_desc": "",
    "stop_lat": "10.0434863",
    "stop_lon": "76.2986487",
    "zone_id": "",
    "stop_url": "",
    "location_type": "0",
    "parent_station": "",
    "stop_timezone": "",
    "wheelchair_boarding": "0"
  },
  {
    "stop_id": "n4889056845",
    "stop_code": "",
    "stop_name": "Aluva Police Station",
    "stop_desc": "",
    "stop_lat": "10.1029556",
    "stop_lon": "76.3584376",
    "zone_id": "",
    "stop_url": "",
    "location_type": "0",
    "parent_station": "",
    "stop_timezone": "",
    "wheelchair_boarding": "0"
  },
  {
    "stop_id": "n5145335691",
    "stop_code": "",
    "stop_name": "St Alberts College",
    "stop_desc": "",
    "stop_lat": "9.9852674",
    "stop_lon": "76.279563",
    "zone_id": "",
    "stop_url": "",
    "location_type": "0",
    "parent_station": "",
    "stop_timezone": "",
    "wheelchair_boarding": "0"
  },
  {
    "stop_id": "n5240431892",
    "stop_code": "",
    "stop_name": "Menaka",
    "stop_desc": "",
    "stop_lat": "9.9776802",
    "stop_lon": "76.2769397",
    "zone_id": "",
    "stop_url": "",
    "location_type": "0",
    "parent_station": "",
    "stop_timezone": "",
    "wheelchair_boarding": "0"
  },
  {
    "stop_id": "n5261851010",
    "stop_code": "",
    "stop_name": "Athani",
    "stop_desc": "",
    "stop_lat": "10.1565933",
    "stop_lon": "76.354767",
    "zone_id": "",
    "stop_url": "",
    "location_type": "0",
    "parent_station": "",
    "stop_timezone": "",
    "wheelchair_boarding": "0"
  },
  {
    "stop_id": "n5295234430",
    "stop_code": "",
    "stop_name": "Medical Trust Hospital",
    "stop_desc": "",
    "stop_lat": "9.9631509",
    "stop_lon": "76.2879268",
    "zone_id": "",
    "stop_url": "",
    "location_type": "0",
    "parent_station": "",
    "stop_timezone": "",
    "wheelchair_boarding": "0"
  },
  {
    "stop_id": "n5377832022",
    "stop_code": "",
    "stop_name": "Hill Palace",
    "stop_desc": "",
    "stop_lat": "9.9519381",
    "stop_lon": "76.3613205",
    "zone_id": "",
    "stop_url": "",
    "location_type": "0",
    "parent_station": "",
    "stop_timezone": "",
    "wheelchair_boarding": "0"
  },
  {
    "stop_id": "n5377841321",
    "stop_code": "",
    "stop_name": "Vadakkekotta",
    "stop_desc": "",
    "stop_lat": "9.9531132",
    "stop_lon": "76.3404726",
    "zone_id": "",
    "stop_url": "",
    "location_type": "0",
    "parent_station": "",
    "stop_timezone": "",
    "wheelchair_boarding": "0"
  },
  {
    "stop_id": "n5379782848",
    "stop_code": "",
    "stop_name": "Manorama Junction",
    "stop_desc": "",
    "stop_lat": "9.9659299",
    "stop_lon": "76.2952354",
    "zone_id": "",
    "stop_url": "",
    "location_type": "0",
    "parent_station": "",
    "stop_timezone": "",
    "wheelchair_boarding": "0"
  },
  {
    "stop_id": "n5423779221",
    "stop_code": "",
    "stop_name": "Edappally Lulu",
    "stop_desc": "",
    "stop_lat": "10.0281091",
    "stop_lon": "76.3099185",
    "zone_id": "",
    "stop_url": "",
    "location_type": "0",
    "parent_station": "",
    "stop_timezone": "",
    "wheelchair_boarding": "0"
  },
  {
    "stop_id": "n5524950666",
    "stop_code": "",
    "stop_name": "Kodikuthmala",
    "stop_desc": "",
    "stop_lat": "10.0814506",
    "stop_lon": "76.3644444",
    "zone_id": "",
    "stop_url": "",
    "location_type": "0",
    "parent_station": "",
    "stop_timezone": "",
    "wheelchair_boarding": "0"
  },
  {
    "stop_id": "n5756729627",
    "stop_code": "",
    "stop_name": "Moolampilly",
    "stop_desc": "",
    "stop_lat": "10.0415239",
    "stop_lon": "76.2627983",
    "zone_id": "",
    "stop_url": "",
    "location_type": "0",
    "parent_station": "",
    "stop_timezone": "",
    "wheelchair_boarding": "0"
  },
  {
    "stop_id": "n5756729628",
    "stop_code": "",
    "stop_name": "Mulavukadu Toll",
    "stop_desc": "",
    "stop_lat": "10.0107693",
    "stop_lon": "76.2580991",
    "zone_id": "",
    "stop_url": "",
    "location_type": "0",
    "parent_station": "",
    "stop_timezone": "",
    "wheelchair_boarding": "0"
  },
  {
    "stop_id": "n5756729629",
    "stop_code": "",
    "stop_name": "Bolgatty",
    "stop_desc": "",
    "stop_lat": "9.9910377",
    "stop_lon": "76.2648026",
    "zone_id": "",
    "stop_url": "",
    "location_type": "0",
    "parent_station": "",
    "stop_timezone": "",
    "wheelchair_boarding": "0"
  },
  {
    "stop_id": "n5756729631",
    "stop_code": "",
    "stop_name": "Kunnumpuram",
    "stop_desc": "",
    "stop_lat": "9.9640554",
    "stop_lon": "76.2456927",
    "zone_id": "",
    "stop_url": "",
    "location_type": "0",
    "parent_station": "",
    "stop_timezone": "",
    "wheelchair_boarding": "0"
  },
  {
    "stop_id": "n5757830236",
    "stop_code": "",
    "stop_name": "Vathimattom",
    "stop_desc": "",
    "stop_lat": "10.0568213",
    "stop_lon": "76.4568369",
    "zone_id": "",
    "stop_url": "",
    "location_type": "0",
    "parent_station": "",
    "stop_timezone": "",
    "wheelchair_boarding": "0"
  },
  {
    "stop_id": "n5757830237",
    "stop_code": "",
    "stop_name": "Bank Junction",
    "stop_desc": "",
    "stop_lat": "10.058933",
    "stop_lon": "76.4594366",
    "zone_id": "",
    "stop_url": "",
    "location_type": "0",
    "parent_station": "",
    "stop_timezone": "",
    "wheelchair_boarding": "0"
  },
  {
    "stop_id": "n5757830238",
    "stop_code": "",
    "stop_name": "Chelakkulam",
    "stop_desc": "",
    "stop_lat": "10.0515189",
    "stop_lon": "76.4492134",
    "zone_id": "",
    "stop_url": "",
    "location_type": "0",
    "parent_station": "",
    "stop_timezone": "",
    "wheelchair_boarding": "0"
  },
  {
    "stop_id": "n5757830239",
    "stop_code": "",
    "stop_name": "Jai Bharath College",
    "stop_desc": "",
    "stop_lat": "10.0540438",
    "stop_lon": "76.4530939",
    "zone_id": "",
    "stop_url": "",
    "location_type": "0",
    "parent_station": "",
    "stop_timezone": "",
    "wheelchair_boarding": "0"
  },
  {
    "stop_id": "n5757830240",
    "stop_code": "",
    "stop_name": "Bhandarakkavala",
    "stop_desc": "",
    "stop_lat": "10.043435",
    "stop_lon": "76.4485546",
    "zone_id": "",
    "stop_url": "",
    "location_type": "0",
    "parent_station": "",
    "stop_timezone": "",
    "wheelchair_boarding": "0"
  },
  {
    "stop_id": "n5757830241",
    "stop_code": "",
    "stop_name": "Double Paalam",
    "stop_desc": "",
    "stop_lat": "10.030529",
    "stop_lon": "76.4488305",
    "zone_id": "",
    "stop_url": "",
    "location_type": "0",
    "parent_station": "",
    "stop_timezone": "",
    "wheelchair_boarding": "0"
  },
  {
    "stop_id": "n5757830243",
    "stop_code": "",
    "stop_name": "Kummanod",
    "stop_desc": "",
    "stop_lat": "10.0387971",
    "stop_lon": "76.4501526",
    "zone_id": "",
    "stop_url": "",
    "location_type": "0",
    "parent_station": "",
    "stop_timezone": "",
    "wheelchair_boarding": "0"
  },
  {
    "stop_id": "n5757830250",
    "stop_code": "",
    "stop_name": "Vilangu",
    "stop_desc": "",
    "stop_lat": "10.0506459",
    "stop_lon": "76.4274615",
    "zone_id": "",
    "stop_url": "",
    "location_type": "0",
    "parent_station": "",
    "stop_timezone": "",
    "wheelchair_boarding": "0"
  },
  {
    "stop_id": "n5757830255",
    "stop_code": "",
    "stop_name": "Pancode Junction",
    "stop_desc": "",
    "stop_lat": "10.0051176",
    "stop_lon": "76.44011",
    "zone_id": "",
    "stop_url": "",
    "location_type": "0",
    "parent_station": "",
    "stop_timezone": "",
    "wheelchair_boarding": "0"
  },
  {
    "stop_id": "n5757830256",
    "stop_code": "",
    "stop_name": "Pulinchode Junction",
    "stop_desc": "",
    "stop_lat": "10.0074969",
    "stop_lon": "76.4419958",
    "zone_id": "",
    "stop_url": "",
    "location_type": "0",
    "parent_station": "",
    "stop_timezone": "",
    "wheelchair_boarding": "0"
  },
  {
    "stop_id": "n5757830264",
    "stop_code": "",
    "stop_name": "Sevana Padi",
    "stop_desc": "",
    "stop_lat": "10.040359",
    "stop_lon": "76.413688",
    "zone_id": "",
    "stop_url": "",
    "location_type": "0",
    "parent_station": "",
    "stop_timezone": "",
    "wheelchair_boarding": "0"
  },
  {
    "stop_id": "n5757830266",
    "stop_code": "",
    "stop_name": "Kizhakkambalam",
    "stop_desc": "",
    "stop_lat": "10.0362603",
    "stop_lon": "76.4079875",
    "zone_id": "",
    "stop_url": "",
    "location_type": "0",
    "parent_station": "",
    "stop_timezone": "",
    "wheelchair_boarding": "0"
  },
  {
    "stop_id": "n5757830267",
    "stop_code": "",
    "stop_name": "Achappan Kavala",
    "stop_desc": "",
    "stop_lat": "10.030862",
    "stop_lon": "76.408022",
    "zone_id": "",
    "stop_url": "",
    "location_type": "0",
    "parent_station": "",
    "stop_timezone": "",
    "wheelchair_boarding": "0"
  },
  {
    "stop_id": "n5757830268",
    "stop_code": "",
    "stop_name": "Morakkala Church",
    "stop_desc": "",
    "stop_lat": "10.017612",
    "stop_lon": "76.4022274",
    "zone_id": "",
    "stop_url": "",
    "location_type": "0",
    "parent_station": "",
    "stop_timezone": "",
    "wheelchair_boarding": "0"
  },
  {
    "stop_id": "n5757830270",
    "stop_code": "",
    "stop_name": "Peechingachira",
    "stop_desc": "",
    "stop_lat": "9.9896721",
    "stop_lon": "76.4092813",
    "zone_id": "",
    "stop_url": "",
    "location_type": "0",
    "parent_station": "",
    "stop_timezone": "",
    "wheelchair_boarding": "0"
  },
  {
    "stop_id": "n5757830271",
    "stop_code": "",
    "stop_name": "Rajashree Kavala",
    "stop_desc": "",
    "stop_lat": "9.9859156",
    "stop_lon": "76.4117488",
    "zone_id": "",
    "stop_url": "",
    "location_type": "0",
    "parent_station": "",
    "stop_timezone": "",
    "wheelchair_boarding": "0"
  },
  {
    "stop_id": "n5757830272",
    "stop_code": "",
    "stop_name": "Kollappady",
    "stop_desc": "",
    "stop_lat": "9.9903452",
    "stop_lon": "76.4209181",
    "zone_id": "",
    "stop_url": "",
    "location_type": "0",
    "parent_station": "",
    "stop_timezone": "",
    "wheelchair_boarding": "0"
  },
  {
    "stop_id": "n5757830273",
    "stop_code": "",
    "stop_name": "Colony",
    "stop_desc": "",
    "stop_lat": "9.9919044",
    "stop_lon": "76.4056191",
    "zone_id": "",
    "stop_url": "",
    "location_type": "0",
    "parent_station": "",
    "stop_timezone": "",
    "wheelchair_boarding": "0"
  },
  {
    "stop_id": "n5757830275",
    "stop_code": "",
    "stop_name": "Pannikuzhy",
    "stop_desc": "",
    "stop_lat": "9.973352",
    "stop_lon": "76.417762",
    "zone_id": "",
    "stop_url": "",
    "location_type": "0",
    "parent_station": "",
    "stop_timezone": "",
    "wheelchair_boarding": "0"
  },
  {
    "stop_id": "n5757830277",
    "stop_code": "",
    "stop_name": "Pukkattupady",
    "stop_desc": "",
    "stop_lat": "10.059481",
    "stop_lon": "76.3953945",
    "zone_id": "",
    "stop_url": "",
    "location_type": "0",
    "parent_station": "",
    "stop_timezone": "",
    "wheelchair_boarding": "0"
  },
  {
    "stop_id": "n5757830278",
    "stop_code": "",
    "stop_name": "Wonderla",
    "stop_desc": "",
    "stop_lat": "10.0283562",
    "stop_lon": "76.3932956",
    "zone_id": "",
    "stop_url": "",
    "location_type": "0",
    "parent_station": "",
    "stop_timezone": "",
    "wheelchair_boarding": "0"
  },
  {
    "stop_id": "n5757830279",
    "stop_code": "",
    "stop_name": "Manakkakadavu Toll",
    "stop_desc": "",
    "stop_lat": "10.0294759",
    "stop_lon": "76.3855902",
    "zone_id": "",
    "stop_url": "",
    "location_type": "0",
    "parent_station": "",
    "stop_timezone": "",
    "wheelchair_boarding": "0"
  },
  {
    "stop_id": "n5757830280",
    "stop_code": "",
    "stop_name": "Pallithazham",
    "stop_desc": "",
    "stop_lat": "10.0296291",
    "stop_lon": "76.3897504",
    "zone_id": "",
    "stop_url": "",
    "location_type": "0",
    "parent_station": "",
    "stop_timezone": "",
    "wheelchair_boarding": "0"
  },
  {
    "stop_id": "n5757830281",
    "stop_code": "",
    "stop_name": "Padathikara",
    "stop_desc": "",
    "stop_lat": "10.0012286",
    "stop_lon": "76.3944375",
    "zone_id": "",
    "stop_url": "",
    "location_type": "0",
    "parent_station": "",
    "stop_timezone": "",
    "wheelchair_boarding": "0"
  },
  {
    "stop_id": "n5757830283",
    "stop_code": "",
    "stop_name": "FACT Club",
    "stop_desc": "",
    "stop_lat": "9.9843969",
    "stop_lon": "76.3955826",
    "zone_id": "",
    "stop_url": "",
    "location_type": "0",
    "parent_station": "",
    "stop_timezone": "",
    "wheelchair_boarding": "0"
  },
  {
    "stop_id": "n5757830284",
    "stop_code": "",
    "stop_name": "Harimattam Ambalam",
    "stop_desc": "",
    "stop_lat": "9.9858864",
    "stop_lon": "76.3919432",
    "zone_id": "",
    "stop_url": "",
    "location_type": "0",
    "parent_station": "",
    "stop_timezone": "",
    "wheelchair_boarding": "0"
  },
  {
    "stop_id": "n5757830285",
    "stop_code": "",
    "stop_name": "Ambalamedu Post Office",
    "stop_desc": "",
    "stop_lat": "9.9836258",
    "stop_lon": "76.3892634",
    "zone_id": "",
    "stop_url": "",
    "location_type": "0",
    "parent_station": "",
    "stop_timezone": "",
    "wheelchair_boarding": "0"
  },
  {
    "stop_id": "n5757830286",
    "stop_code": "",
    "stop_name": "Kuzhikkad",
    "stop_desc": "",
    "stop_lat": "9.9779433",
    "stop_lon": "76.3849696",
    "zone_id": "",
    "stop_url": "",
    "location_type": "0",
    "parent_station": "",
    "stop_timezone": "",
    "wheelchair_boarding": "0"
  },
  {
    "stop_id": "n5757830287",
    "stop_code": "",
    "stop_name": "Chakku Company",
    "stop_desc": "",
    "stop_lat": "9.9945697",
    "stop_lon": "76.396456",
    "zone_id": "",
    "stop_url": "",
    "location_type": "0",
    "parent_station": "",
    "stop_timezone": "",
    "wheelchair_boarding": "0"
  },
  {
    "stop_id": "n5757830289",
    "stop_code": "",
    "stop_name": "HOC",
    "stop_desc": "",
    "stop_lat": "9.9707313",
    "stop_lon": "76.3810613",
    "zone_id": "",
    "stop_url": "",
    "location_type": "0",
    "parent_station": "",
    "stop_timezone": "",
    "wheelchair_boarding": "0"
  },
  {
    "stop_id": "n5757830290",
    "stop_code": "",
    "stop_name": "Cochin Refinery",
    "stop_desc": "",
    "stop_lat": "9.9691994",
    "stop_lon": "76.3783832",
    "zone_id": "",
    "stop_url": "",
    "location_type": "0",
    "parent_station": "",
    "stop_timezone": "",
    "wheelchair_boarding": "0"
  },
  {
    "stop_id": "n5757830291",
    "stop_code": "",
    "stop_name": "Jwalagiri",
    "stop_desc": "",
    "stop_lat": "9.9754332",
    "stop_lon": "76.3813003",
    "zone_id": "",
    "stop_url": "",
    "location_type": "0",
    "parent_station": "",
    "stop_timezone": "",
    "wheelchair_boarding": "0"
  },
  {
    "stop_id": "n5757830292",
    "stop_code": "",
    "stop_name": "Kuzhivelippady",
    "stop_desc": "",
    "stop_lat": "10.0492144",
    "stop_lon": "76.3719935",
    "zone_id": "",
    "stop_url": "",
    "location_type": "0",
    "parent_station": "",
    "stop_timezone": "",
    "wheelchair_boarding": "0"
  },
  {
    "stop_id": "n5757830293",
    "stop_code": "",
    "stop_name": "Infopark",
    "stop_desc": "",
    "stop_lat": "10.015181",
    "stop_lon": "76.3635859",
    "zone_id": "",
    "stop_url": "",
    "location_type": "0",
    "parent_station": "",
    "stop_timezone": "",
    "wheelchair_boarding": "0"
  },
  {
    "stop_id": "n5757830294",
    "stop_code": "",
    "stop_name": "Kollanpady",
    "stop_desc": "",
    "stop_lat": "9.9565995",
    "stop_lon": "76.3655254",
    "zone_id": "",
    "stop_url": "",
    "location_type": "0",
    "parent_station": "",
    "stop_timezone": "",
    "wheelchair_boarding": "0"
  },
  {
    "stop_id": "n5757830295",
    "stop_code": "",
    "stop_name": "Makaliyam",
    "stop_desc": "",
    "stop_lat": "9.9626114",
    "stop_lon": "76.3578975",
    "zone_id": "",
    "stop_url": "",
    "location_type": "0",
    "parent_station": "",
    "stop_timezone": "",
    "wheelchair_boarding": "0"
  },
  {
    "stop_id": "n5757830296",
    "stop_code": "",
    "stop_name": "IOC",
    "stop_desc": "",
    "stop_lat": "9.9635121",
    "stop_lon": "76.3742254",
    "zone_id": "",
    "stop_url": "",
    "location_type": "0",
    "parent_station": "",
    "stop_timezone": "",
    "wheelchair_boarding": "0"
  },
  {
    "stop_id": "n5757830297",
    "stop_code": "",
    "stop_name": "Irumpanam Puthiya Road",
    "stop_desc": "",
    "stop_lat": "9.9569239",
    "stop_lon": "76.358295",
    "zone_id": "",
    "stop_url": "",
    "location_type": "0",
    "parent_station": "",
    "stop_timezone": "",
    "wheelchair_boarding": "0"
  },
  {
    "stop_id": "n5757830298",
    "stop_code": "",
    "stop_name": "Chitrapuzha",
    "stop_desc": "",
    "stop_lat": "9.959266",
    "stop_lon": "76.3671193",
    "zone_id": "",
    "stop_url": "",
    "location_type": "0",
    "parent_station": "",
    "stop_timezone": "",
    "wheelchair_boarding": "0"
  },
  {
    "stop_id": "n5757830299",
    "stop_code": "",
    "stop_name": "HMT Machine Tools",
    "stop_desc": "",
    "stop_lat": "10.049139",
    "stop_lon": "76.3405265",
    "zone_id": "",
    "stop_url": "",
    "location_type": "0",
    "parent_station": "",
    "stop_timezone": "",
    "wheelchair_boarding": "0"
  },
  {
    "stop_id": "n5757830300",
    "stop_code": "",
    "stop_name": "HMT Colony",
    "stop_desc": "",
    "stop_lat": "10.0544913",
    "stop_lon": "76.3550784",
    "zone_id": "",
    "stop_url": "",
    "location_type": "0",
    "parent_station": "",
    "stop_timezone": "",
    "wheelchair_boarding": "0"
  },
  {
    "stop_id": "n5757830301",
    "stop_code": "",
    "stop_name": "Median",
    "stop_desc": "",
    "stop_lat": "10.0484109",
    "stop_lon": "76.3363118",
    "zone_id": "",
    "stop_url": "",
    "location_type": "0",
    "parent_station": "",
    "stop_timezone": "",
    "wheelchair_boarding": "0"
  },
  {
    "stop_id": "n5757830303",
    "stop_code": "",
    "stop_name": "Judgemukku",
    "stop_desc": "",
    "stop_lat": "10.0352989",
    "stop_lon": "76.3339983",
    "zone_id": "",
    "stop_url": "",
    "location_type": "0",
    "parent_station": "",
    "stop_timezone": "",
    "wheelchair_boarding": "0"
  },
  {
    "stop_id": "n5757830304",
    "stop_code": "",
    "stop_name": "Vallathol Padi",
    "stop_desc": "",
    "stop_lat": "10.03625",
    "stop_lon": "76.337898",
    "zone_id": "",
    "stop_url": "",
    "location_type": "0",
    "parent_station": "",
    "stop_timezone": "",
    "wheelchair_boarding": "0"
  },
  {
    "stop_id": "n5757830306",
    "stop_code": "",
    "stop_name": "Ambadimoola",
    "stop_desc": "",
    "stop_lat": "10.0218242",
    "stop_lon": "76.3379308",
    "zone_id": "",
    "stop_url": "",
    "location_type": "0",
    "parent_station": "",
    "stop_timezone": "",
    "wheelchair_boarding": "0"
  },
  {
    "stop_id": "n5757830308",
    "stop_code": "",
    "stop_name": "Akashavani Junction",
    "stop_desc": "",
    "stop_lat": "10.012932",
    "stop_lon": "76.3416197",
    "zone_id": "",
    "stop_url": "",
    "location_type": "0",
    "parent_station": "",
    "stop_timezone": "",
    "wheelchair_boarding": "0"
  },
  {
    "stop_id": "n5757830310",
    "stop_code": "",
    "stop_name": "CSEZ",
    "stop_desc": "",
    "stop_lat": "10.0061491",
    "stop_lon": "76.345066",
    "zone_id": "",
    "stop_url": "",
    "location_type": "0",
    "parent_station": "",
    "stop_timezone": "",
    "wheelchair_boarding": "0"
  },
  {
    "stop_id": "n5757830311",
    "stop_code": "",
    "stop_name": "Kuzhikattumoola Palli",
    "stop_desc": "",
    "stop_lat": "10.0154935",
    "stop_lon": "76.3544365",
    "zone_id": "",
    "stop_url": "",
    "location_type": "0",
    "parent_station": "",
    "stop_timezone": "",
    "wheelchair_boarding": "0"
  },
  {
    "stop_id": "n5757830312",
    "stop_code": "",
    "stop_name": "Chittethukara",
    "stop_desc": "",
    "stop_lat": "10.0016942",
    "stop_lon": "76.3495237",
    "zone_id": "",
    "stop_url": "",
    "location_type": "0",
    "parent_station": "",
    "stop_timezone": "",
    "wheelchair_boarding": "0"
  },
  {
    "stop_id": "n5757830313",
    "stop_code": "",
    "stop_name": "Adarsha Junction",
    "stop_desc": "",
    "stop_lat": "10.0038264",
    "stop_lon": "76.3470014",
    "zone_id": "",
    "stop_url": "",
    "location_type": "0",
    "parent_station": "",
    "stop_timezone": "",
    "wheelchair_boarding": "0"
  },
  {
    "stop_id": "n5757830315",
    "stop_code": "",
    "stop_name": "Chittethukara",
    "stop_desc": "",
    "stop_lat": "9.9982299",
    "stop_lon": "76.3507222",
    "zone_id": "",
    "stop_url": "",
    "location_type": "0",
    "parent_station": "",
    "stop_timezone": "",
    "wheelchair_boarding": "0"
  },
  {
    "stop_id": "n5757830316",
    "stop_code": "",
    "stop_name": "Rajagiri",
    "stop_desc": "",
    "stop_lat": "9.9955153",
    "stop_lon": "76.3515446",
    "zone_id": "",
    "stop_url": "",
    "location_type": "0",
    "parent_station": "",
    "stop_timezone": "",
    "wheelchair_boarding": "0"
  },
  {
    "stop_id": "n5757830317",
    "stop_code": "",
    "stop_name": "Indian Oil",
    "stop_desc": "",
    "stop_lat": "9.9826107",
    "stop_lon": "76.3524657",
    "zone_id": "",
    "stop_url": "",
    "location_type": "0",
    "parent_station": "",
    "stop_timezone": "",
    "wheelchair_boarding": "0"
  },
  {
    "stop_id": "n5757830318",
    "stop_code": "",
    "stop_name": "Vettikkavu",
    "stop_desc": "",
    "stop_lat": "9.9770592",
    "stop_lon": "76.3539899",
    "zone_id": "",
    "stop_url": "",
    "location_type": "0",
    "parent_station": "",
    "stop_timezone": "",
    "wheelchair_boarding": "0"
  },
  {
    "stop_id": "n5757830319",
    "stop_code": "",
    "stop_name": "BPCL",
    "stop_desc": "",
    "stop_lat": "9.979512",
    "stop_lon": "76.3532007",
    "zone_id": "",
    "stop_url": "",
    "location_type": "0",
    "parent_station": "",
    "stop_timezone": "",
    "wheelchair_boarding": "0"
  },
  {
    "stop_id": "n5757830521",
    "stop_code": "",
    "stop_name": "Mathoor Junction",
    "stop_desc": "",
    "stop_lat": "9.9730249",
    "stop_lon": "76.3364359",
    "zone_id": "",
    "stop_url": "",
    "location_type": "0",
    "parent_station": "",
    "stop_timezone": "",
    "wheelchair_boarding": "0"
  },
  {
    "stop_id": "n5757830523",
    "stop_code": "",
    "stop_name": "Azad Junction",
    "stop_desc": "",
    "stop_lat": "9.9582171",
    "stop_lon": "76.3431309",
    "zone_id": "",
    "stop_url": "",
    "location_type": "0",
    "parent_station": "",
    "stop_timezone": "",
    "wheelchair_boarding": "0"
  },
  {
    "stop_id": "n5757830524",
    "stop_code": "",
    "stop_name": "Kadathu Kadavu",
    "stop_desc": "",
    "stop_lat": "9.9749361",
    "stop_lon": "76.3545653",
    "zone_id": "",
    "stop_url": "",
    "location_type": "0",
    "parent_station": "",
    "stop_timezone": "",
    "wheelchair_boarding": "0"
  },
  {
    "stop_id": "n5757830525",
    "stop_code": "",
    "stop_name": "Puthiya Road Junction",
    "stop_desc": "",
    "stop_lat": "9.9653368",
    "stop_lon": "76.3401917",
    "zone_id": "",
    "stop_url": "",
    "location_type": "0",
    "parent_station": "",
    "stop_timezone": "",
    "wheelchair_boarding": "0"
  },
  {
    "stop_id": "n5757830526",
    "stop_code": "",
    "stop_name": "Illikkappady",
    "stop_desc": "",
    "stop_lat": "9.970773",
    "stop_lon": "76.3376072",
    "zone_id": "",
    "stop_url": "",
    "location_type": "0",
    "parent_station": "",
    "stop_timezone": "",
    "wheelchair_boarding": "0"
  },
  {
    "stop_id": "n5757830527",
    "stop_code": "",
    "stop_name": "Pottayil",
    "stop_desc": "",
    "stop_lat": "9.9623991",
    "stop_lon": "76.3413903",
    "zone_id": "",
    "stop_url": "",
    "location_type": "0",
    "parent_station": "",
    "stop_timezone": "",
    "wheelchair_boarding": "0"
  },
  {
    "stop_id": "n5757830529",
    "stop_code": "",
    "stop_name": "Govt ITI",
    "stop_desc": "",
    "stop_lat": "10.0538987",
    "stop_lon": "76.3280142",
    "zone_id": "",
    "stop_url": "",
    "location_type": "0",
    "parent_station": "",
    "stop_timezone": "",
    "wheelchair_boarding": "0"
  },
  {
    "stop_id": "n5757830534",
    "stop_code": "",
    "stop_name": "South Kalamassery",
    "stop_desc": "",
    "stop_lat": "10.0490468",
    "stop_lon": "76.3190748",
    "zone_id": "",
    "stop_url": "",
    "location_type": "0",
    "parent_station": "",
    "stop_timezone": "",
    "wheelchair_boarding": "0"
  },
  {
    "stop_id": "n5757830535",
    "stop_code": "",
    "stop_name": "Pathadipalam",
    "stop_desc": "",
    "stop_lat": "10.0381928",
    "stop_lon": "76.3154373",
    "zone_id": "",
    "stop_url": "",
    "location_type": "0",
    "parent_station": "",
    "stop_timezone": "",
    "wheelchair_boarding": "0"
  },
  {
    "stop_id": "n5757830536",
    "stop_code": "",
    "stop_name": "Koonamthai",
    "stop_desc": "",
    "stop_lat": "10.0332828",
    "stop_lon": "76.3129139",
    "zone_id": "",
    "stop_url": "",
    "location_type": "0",
    "parent_station": "",
    "stop_timezone": "",
    "wheelchair_boarding": "0"
  },
  {
    "stop_id": "n5757830537",
    "stop_code": "",
    "stop_name": "Club Junction",
    "stop_desc": "",
    "stop_lat": "10.027596",
    "stop_lon": "76.3156074",
    "zone_id": "",
    "stop_url": "",
    "location_type": "0",
    "parent_station": "",
    "stop_timezone": "",
    "wheelchair_boarding": "0"
  },
  {
    "stop_id": "n5757830538",
    "stop_code": "",
    "stop_name": "Unnichira",
    "stop_desc": "",
    "stop_lat": "10.0299877",
    "stop_lon": "76.3191024",
    "zone_id": "",
    "stop_url": "",
    "location_type": "0",
    "parent_station": "",
    "stop_timezone": "",
    "wheelchair_boarding": "0"
  },
  {
    "stop_id": "n5757830539",
    "stop_code": "",
    "stop_name": "Thykkavu",
    "stop_desc": "",
    "stop_lat": "10.0318049",
    "stop_lon": "76.3218034",
    "zone_id": "",
    "stop_url": "",
    "location_type": "0",
    "parent_station": "",
    "stop_timezone": "",
    "wheelchair_boarding": "0"
  },
  {
    "stop_id": "n5757830542",
    "stop_code": "",
    "stop_name": "Padivattom",
    "stop_desc": "",
    "stop_lat": "10.0076352",
    "stop_lon": "76.3158601",
    "zone_id": "",
    "stop_url": "",
    "location_type": "0",
    "parent_station": "",
    "stop_timezone": "",
    "wheelchair_boarding": "0"
  },
  {
    "stop_id": "n5757830543",
    "stop_code": "",
    "stop_name": "Pipeline Junction",
    "stop_desc": "",
    "stop_lat": "10.0045621",
    "stop_lon": "76.3132997",
    "zone_id": "",
    "stop_url": "",
    "location_type": "0",
    "parent_station": "",
    "stop_timezone": "",
    "wheelchair_boarding": "0"
  },
  {
    "stop_id": "n5757830544",
    "stop_code": "",
    "stop_name": "Vazhakkala",
    "stop_desc": "",
    "stop_lat": "10.0126008",
    "stop_lon": "76.3266293",
    "zone_id": "",
    "stop_url": "",
    "location_type": "0",
    "parent_station": "",
    "stop_timezone": "",
    "wheelchair_boarding": "0"
  },
  {
    "stop_id": "n5757830545",
    "stop_code": "",
    "stop_name": "Colony Junction",
    "stop_desc": "",
    "stop_lat": "10.0134851",
    "stop_lon": "76.3305745",
    "zone_id": "",
    "stop_url": "",
    "location_type": "0",
    "parent_station": "",
    "stop_timezone": "",
    "wheelchair_boarding": "0"
  },
  {
    "stop_id": "n5757830546",
    "stop_code": "",
    "stop_name": "Padamugal",
    "stop_desc": "",
    "stop_lat": "10.0141336",
    "stop_lon": "76.3328697",
    "zone_id": "",
    "stop_url": "",
    "location_type": "0",
    "parent_station": "",
    "stop_timezone": "",
    "wheelchair_boarding": "0"
  },
  {
    "stop_id": "n5757830548",
    "stop_code": "",
    "stop_name": "Vennala School Junction",
    "stop_desc": "",
    "stop_lat": "9.9959111",
    "stop_lon": "76.3256509",
    "zone_id": "",
    "stop_url": "",
    "location_type": "0",
    "parent_station": "",
    "stop_timezone": "",
    "wheelchair_boarding": "0"
  },
  {
    "stop_id": "n5757830549",
    "stop_code": "",
    "stop_name": "Vaishali",
    "stop_desc": "",
    "stop_lat": "9.9874521",
    "stop_lon": "76.3160497",
    "zone_id": "",
    "stop_url": "",
    "location_type": "0",
    "parent_station": "",
    "stop_timezone": "",
    "wheelchair_boarding": "0"
  },
  {
    "stop_id": "n5757830550",
    "stop_code": "",
    "stop_name": "Kappattikavu",
    "stop_desc": "",
    "stop_lat": "9.981507",
    "stop_lon": "76.332219",
    "zone_id": "",
    "stop_url": "",
    "location_type": "0",
    "parent_station": "",
    "stop_timezone": "",
    "wheelchair_boarding": "0"
  },
  {
    "stop_id": "n5757830551",
    "stop_code": "",
    "stop_name": "Puthiya Road Bypass Junction",
    "stop_desc": "",
    "stop_lat": "9.9926588",
    "stop_lon": "76.3151349",
    "zone_id": "",
    "stop_url": "",
    "location_type": "0",
    "parent_station": "",
    "stop_timezone": "",
    "wheelchair_boarding": "0"
  },
  {
    "stop_id": "n5757830552",
    "stop_code": "",
    "stop_name": "Kuthappady",
    "stop_desc": "",
    "stop_lat": "9.9829168",
    "stop_lon": "76.3126223",
    "zone_id": "",
    "stop_url": "",
    "location_type": "0",
    "parent_station": "",
    "stop_timezone": "",
    "wheelchair_boarding": "0"
  },
  {
    "stop_id": "n5757830554",
    "stop_code": "",
    "stop_name": "Anjumuri",
    "stop_desc": "",
    "stop_lat": "9.9806411",
    "stop_lon": "76.3132987",
    "zone_id": "",
    "stop_url": "",
    "location_type": "0",
    "parent_station": "",
    "stop_timezone": "",
    "wheelchair_boarding": "0"
  },
  {
    "stop_id": "n5757830555",
    "stop_code": "",
    "stop_name": "Puthenkulangara Shiva Temple",
    "stop_desc": "",
    "stop_lat": "9.9834697",
    "stop_lon": "76.3311136",
    "zone_id": "",
    "stop_url": "",
    "location_type": "0",
    "parent_station": "",
    "stop_timezone": "",
    "wheelchair_boarding": "0"
  },
  {
    "stop_id": "n5757830556",
    "stop_code": "",
    "stop_name": "Thykoodam",
    "stop_desc": "",
    "stop_lat": "9.9590607",
    "stop_lon": "76.3183817",
    "zone_id": "",
    "stop_url": "",
    "location_type": "0",
    "parent_station": "",
    "stop_timezone": "",
    "wheelchair_boarding": "0"
  },
  {
    "stop_id": "n5757830558",
    "stop_code": "",
    "stop_name": "Sub Station",
    "stop_desc": "",
    "stop_lat": "9.9633059",
    "stop_lon": "76.3190876",
    "zone_id": "",
    "stop_url": "",
    "location_type": "0",
    "parent_station": "",
    "stop_timezone": "",
    "wheelchair_boarding": "0"
  },
  {
    "stop_id": "n5757830560",
    "stop_code": "",
    "stop_name": "OEN",
    "stop_desc": "",
    "stop_lat": "9.9609871",
    "stop_lon": "76.3218673",
    "zone_id": "",
    "stop_url": "",
    "location_type": "0",
    "parent_station": "",
    "stop_timezone": "",
    "wheelchair_boarding": "0"
  },
  {
    "stop_id": "n5863352173",
    "stop_code": "",
    "stop_name": "Mubarak",
    "stop_desc": "",
    "stop_lat": "10.0334945",
    "stop_lon": "76.4480786",
    "zone_id": "",
    "stop_url": "",
    "location_type": "0",
    "parent_station": "",
    "stop_timezone": "",
    "wheelchair_boarding": "0"
  },
  {
    "stop_id": "n5958357616",
    "stop_code": "",
    "stop_name": "Palakkal",
    "stop_desc": "",
    "stop_lat": "10.1261314",
    "stop_lon": "76.3159161",
    "zone_id": "",
    "stop_url": "",
    "location_type": "0",
    "parent_station": "",
    "stop_timezone": "",
    "wheelchair_boarding": "0"
  },
  {
    "stop_id": "n5958358585",
    "stop_code": "",
    "stop_name": "Alangad Junction",
    "stop_desc": "",
    "stop_lat": "10.1293779",
    "stop_lon": "76.2995476",
    "zone_id": "",
    "stop_url": "",
    "location_type": "0",
    "parent_station": "",
    "stop_timezone": "",
    "wheelchair_boarding": "0"
  },
  {
    "stop_id": "n5958358593",
    "stop_code": "",
    "stop_name": "Malikampeedika",
    "stop_desc": "",
    "stop_lat": "10.127615",
    "stop_lon": "76.308801",
    "zone_id": "",
    "stop_url": "",
    "location_type": "0",
    "parent_station": "",
    "stop_timezone": "",
    "wheelchair_boarding": "0"
  },
  {
    "stop_id": "n5958359385",
    "stop_code": "",
    "stop_name": "Valyappanpadi",
    "stop_desc": "",
    "stop_lat": "10.1265076",
    "stop_lon": "76.3252052",
    "zone_id": "",
    "stop_url": "",
    "location_type": "0",
    "parent_station": "",
    "stop_timezone": "",
    "wheelchair_boarding": "0"
  },
  {
    "stop_id": "n5975126689",
    "stop_code": "",
    "stop_name": "Palli Kavala",
    "stop_desc": "",
    "stop_lat": "10.1087397",
    "stop_lon": "76.4582467",
    "zone_id": "",
    "stop_url": "",
    "location_type": "0",
    "parent_station": "",
    "stop_timezone": "",
    "wheelchair_boarding": "0"
  },
  {
    "stop_id": "n6039119919",
    "stop_code": "",
    "stop_name": "NAD Kavala",
    "stop_desc": "",
    "stop_lat": "10.0696578",
    "stop_lon": "76.3856327",
    "zone_id": "",
    "stop_url": "",
    "location_type": "0",
    "parent_station": "",
    "stop_timezone": "",
    "wheelchair_boarding": "0"
  },
  {
    "stop_id": "n6039131398",
    "stop_code": "",
    "stop_name": "KMEA",
    "stop_desc": "",
    "stop_lat": "10.0523499",
    "stop_lon": "76.3823012",
    "zone_id": "",
    "stop_url": "",
    "location_type": "0",
    "parent_station": "",
    "stop_timezone": "",
    "wheelchair_boarding": "0"
  },
  {
    "stop_id": "n6043484164",
    "stop_code": "",
    "stop_name": "Punchayath Junction",
    "stop_desc": "",
    "stop_lat": "10.0503396",
    "stop_lon": "76.3773508",
    "zone_id": "",
    "stop_url": "",
    "location_type": "0",
    "parent_station": "",
    "stop_timezone": "",
    "wheelchair_boarding": "0"
  },
  {
    "stop_id": "n6043510755",
    "stop_code": "",
    "stop_name": "Thevakkal",
    "stop_desc": "",
    "stop_lat": "10.0463714",
    "stop_lon": "76.3637024",
    "zone_id": "",
    "stop_url": "",
    "location_type": "0",
    "parent_station": "",
    "stop_timezone": "",
    "wheelchair_boarding": "0"
  },
  {
    "stop_id": "n6043532762",
    "stop_code": "",
    "stop_name": "Mundampalam",
    "stop_desc": "",
    "stop_lat": "10.036633",
    "stop_lon": "76.3439786",
    "zone_id": "",
    "stop_url": "",
    "location_type": "0",
    "parent_station": "",
    "stop_timezone": "",
    "wheelchair_boarding": "0"
  },
  {
    "stop_id": "n6043556589",
    "stop_code": "",
    "stop_name": "Kunjattukara",
    "stop_desc": "",
    "stop_lat": "10.0653482",
    "stop_lon": "76.3899502",
    "zone_id": "",
    "stop_url": "",
    "location_type": "0",
    "parent_station": "",
    "stop_timezone": "",
    "wheelchair_boarding": "0"
  },
  {
    "stop_id": "n6199097354",
    "stop_code": "",
    "stop_name": "Edayar",
    "stop_desc": "",
    "stop_lat": "10.0875047",
    "stop_lon": "76.3030481",
    "zone_id": "",
    "stop_url": "",
    "location_type": "0",
    "parent_station": "",
    "stop_timezone": "",
    "wheelchair_boarding": "0"
  },
  {
    "stop_id": "n6199097355",
    "stop_code": "",
    "stop_name": "Panayikulam Junction",
    "stop_desc": "",
    "stop_lat": "10.102027",
    "stop_lon": "76.301386",
    "zone_id": "",
    "stop_url": "",
    "location_type": "0",
    "parent_station": "",
    "stop_timezone": "",
    "wheelchair_boarding": "0"
  },
  {
    "stop_id": "n6199119515",
    "stop_code": "",
    "stop_name": "Paathalam",
    "stop_desc": "",
    "stop_lat": "10.0778651",
    "stop_lon": "76.3184099",
    "zone_id": "",
    "stop_url": "",
    "location_type": "0",
    "parent_station": "",
    "stop_timezone": "",
    "wheelchair_boarding": "0"
  },
  {
    "stop_id": "n6236677902",
    "stop_code": "",
    "stop_name": "FACT Market",
    "stop_desc": "",
    "stop_lat": "10.0740635",
    "stop_lon": "76.3074406",
    "zone_id": "",
    "stop_url": "",
    "location_type": "0",
    "parent_station": "",
    "stop_timezone": "",
    "wheelchair_boarding": "0"
  },
  {
    "stop_id": "n6300587285",
    "stop_code": "",
    "stop_name": "Polakandam Market",
    "stop_desc": "",
    "stop_lat": "9.9394969",
    "stop_lon": "76.2555685",
    "zone_id": "",
    "stop_url": "",
    "location_type": "0",
    "parent_station": "",
    "stop_timezone": "",
    "wheelchair_boarding": "0"
  },
  {
    "stop_id": "n6300587288",
    "stop_code": "",
    "stop_name": "Edappally Toll",
    "stop_desc": "",
    "stop_lat": "10.0299901",
    "stop_lon": "76.3109525",
    "zone_id": "",
    "stop_url": "",
    "location_type": "0",
    "parent_station": "",
    "stop_timezone": "",
    "wheelchair_boarding": "0"
  },
  {
    "stop_id": "n6300587385",
    "stop_code": "",
    "stop_name": "Karuvelippadi",
    "stop_desc": "",
    "stop_lat": "9.9414492",
    "stop_lon": "76.2557946",
    "zone_id": "",
    "stop_url": "",
    "location_type": "0",
    "parent_station": "",
    "stop_timezone": "",
    "wheelchair_boarding": "0"
  },
  {
    "stop_id": "n6300587388",
    "stop_code": "",
    "stop_name": "Amaravathi",
    "stop_desc": "",
    "stop_lat": "9.9573702",
    "stop_lon": "76.2424165",
    "zone_id": "",
    "stop_url": "",
    "location_type": "0",
    "parent_station": "",
    "stop_timezone": "",
    "wheelchair_boarding": "0"
  },
  {
    "stop_id": "n6300587389",
    "stop_code": "",
    "stop_name": "Kunnumpuram",
    "stop_desc": "",
    "stop_lat": "9.9652903",
    "stop_lon": "76.243579",
    "zone_id": "",
    "stop_url": "",
    "location_type": "0",
    "parent_station": "",
    "stop_timezone": "",
    "wheelchair_boarding": "0"
  },
  {
    "stop_id": "n6300587390",
    "stop_code": "",
    "stop_name": "Shanthi Nagar",
    "stop_desc": "",
    "stop_lat": "9.932311",
    "stop_lon": "76.298925",
    "zone_id": "",
    "stop_url": "",
    "location_type": "0",
    "parent_station": "",
    "stop_timezone": "",
    "wheelchair_boarding": "0"
  },
  {
    "stop_id": "n6300587391",
    "stop_code": "",
    "stop_name": "Kallath Temple",
    "stop_desc": "",
    "stop_lat": "9.9365648",
    "stop_lon": "76.3097486",
    "zone_id": "",
    "stop_url": "",
    "location_type": "0",
    "parent_station": "",
    "stop_timezone": "",
    "wheelchair_boarding": "0"
  },
  {
    "stop_id": "n6300587392",
    "stop_code": "",
    "stop_name": "Kundanoor Junction",
    "stop_desc": "",
    "stop_lat": "9.9375468",
    "stop_lon": "76.3178674",
    "zone_id": "",
    "stop_url": "",
    "location_type": "0",
    "parent_station": "",
    "stop_timezone": "",
    "wheelchair_boarding": "0"
  },
  {
    "stop_id": "n6300587394",
    "stop_code": "",
    "stop_name": "Vyttila Junction",
    "stop_desc": "",
    "stop_lat": "9.9681034",
    "stop_lon": "76.3180316",
    "zone_id": "",
    "stop_url": "",
    "location_type": "0",
    "parent_station": "",
    "stop_timezone": "",
    "wheelchair_boarding": "0"
  },
  {
    "stop_id": "n6300587395",
    "stop_code": "",
    "stop_name": "Chakkaraparambu",
    "stop_desc": "",
    "stop_lat": "9.989384",
    "stop_lon": "76.3155185",
    "zone_id": "",
    "stop_url": "",
    "location_type": "0",
    "parent_station": "",
    "stop_timezone": "",
    "wheelchair_boarding": "0"
  },
  {
    "stop_id": "n6300587585",
    "stop_code": "",
    "stop_name": "Kannadikadu",
    "stop_desc": "",
    "stop_lat": "9.9493056",
    "stop_lon": "76.3182144",
    "zone_id": "",
    "stop_url": "",
    "location_type": "0",
    "parent_station": "",
    "stop_timezone": "",
    "wheelchair_boarding": "0"
  },
  {
    "stop_id": "n6491115864",
    "stop_code": "",
    "stop_name": "Mythri",
    "stop_desc": "",
    "stop_lat": "9.9127626",
    "stop_lon": "76.4083346",
    "zone_id": "",
    "stop_url": "",
    "location_type": "0",
    "parent_station": "",
    "stop_timezone": "",
    "wheelchair_boarding": "0"
  },
  {
    "stop_id": "n6575215866",
    "stop_code": "",
    "stop_name": "Pambayi Moola",
    "stop_desc": "",
    "stop_lat": "9.9121396",
    "stop_lon": "76.2936563",
    "zone_id": "",
    "stop_url": "",
    "location_type": "0",
    "parent_station": "",
    "stop_timezone": "",
    "wheelchair_boarding": "0"
  },
  {
    "stop_id": "n6579556388",
    "stop_code": "",
    "stop_name": "Kangarappady",
    "stop_desc": "",
    "stop_lat": "10.0425877",
    "stop_lon": "76.3545074",
    "zone_id": "",
    "stop_url": "",
    "location_type": "0",
    "parent_station": "",
    "stop_timezone": "",
    "wheelchair_boarding": "0"
  },
  {
    "stop_id": "n6579556389",
    "stop_code": "",
    "stop_name": "Kangarappady",
    "stop_desc": "",
    "stop_lat": "10.04284",
    "stop_lon": "76.3546549",
    "zone_id": "",
    "stop_url": "",
    "location_type": "0",
    "parent_station": "",
    "stop_timezone": "",
    "wheelchair_boarding": "0"
  },
  {
    "stop_id": "n6604465433",
    "stop_code": "",
    "stop_name": "Pashnithodu Palam",
    "stop_desc": "",
    "stop_lat": "9.9134871",
    "stop_lon": "76.2827682",
    "zone_id": "",
    "stop_url": "",
    "location_type": "0",
    "parent_station": "",
    "stop_timezone": "",
    "wheelchair_boarding": "0"
  },
  {
    "stop_id": "n6604465434",
    "stop_code": "",
    "stop_name": "Pashnithodu Palam",
    "stop_desc": "",
    "stop_lat": "9.9133704",
    "stop_lon": "76.2826692",
    "zone_id": "",
    "stop_url": "",
    "location_type": "0",
    "parent_station": "",
    "stop_timezone": "",
    "wheelchair_boarding": "0"
  },
  {
    "stop_id": "n6604480384",
    "stop_code": "",
    "stop_name": "Pambayi Moola",
    "stop_desc": "",
    "stop_lat": "9.9121149",
    "stop_lon": "76.2935586",
    "zone_id": "",
    "stop_url": "",
    "location_type": "0",
    "parent_station": "",
    "stop_timezone": "",
    "wheelchair_boarding": "0"
  },
  {
    "stop_id": "n6604489386",
    "stop_code": "",
    "stop_name": "Pambayi Moola",
    "stop_desc": "",
    "stop_lat": "9.9127528",
    "stop_lon": "76.2917441",
    "zone_id": "",
    "stop_url": "",
    "location_type": "0",
    "parent_station": "",
    "stop_timezone": "",
    "wheelchair_boarding": "0"
  },
  {
    "stop_id": "n6859298874",
    "stop_code": "",
    "stop_name": "CT Office",
    "stop_desc": "",
    "stop_lat": "10.0675322",
    "stop_lon": "76.2127081",
    "zone_id": "",
    "stop_url": "",
    "location_type": "0",
    "parent_station": "",
    "stop_timezone": "",
    "wheelchair_boarding": "0"
  },
  {
    "stop_id": "n6864553692",
    "stop_code": "",
    "stop_name": "Company Peedika",
    "stop_desc": "",
    "stop_lat": "10.0008625",
    "stop_lon": "76.2346635",
    "zone_id": "",
    "stop_url": "",
    "location_type": "0",
    "parent_station": "",
    "stop_timezone": "",
    "wheelchair_boarding": "0"
  },
  {
    "stop_id": "n6894484657",
    "stop_code": "",
    "stop_name": "MES Collage",
    "stop_desc": "",
    "stop_lat": "10.1544196",
    "stop_lon": "76.2890899",
    "zone_id": "",
    "stop_url": "",
    "location_type": "0",
    "parent_station": "",
    "stop_timezone": "",
    "wheelchair_boarding": "0"
  },
  {
    "stop_id": "n6895227823",
    "stop_code": "",
    "stop_name": "Pallathamkulangara",
    "stop_desc": "",
    "stop_lat": "10.1099691",
    "stop_lon": "76.2025502",
    "zone_id": "",
    "stop_url": "",
    "location_type": "0",
    "parent_station": "",
    "stop_timezone": "",
    "wheelchair_boarding": "0"
  },
  {
    "stop_id": "n6895265704",
    "stop_code": "",
    "stop_name": "Cheruvaippu Junction",
    "stop_desc": "",
    "stop_lat": "10.1135417",
    "stop_lon": "76.2016195",
    "zone_id": "",
    "stop_url": "",
    "location_type": "0",
    "parent_station": "",
    "stop_timezone": "",
    "wheelchair_boarding": "0"
  },
  {
    "stop_id": "n6914445924",
    "stop_code": "",
    "stop_name": "Gowreeswaram",
    "stop_desc": "",
    "stop_lat": "10.1333736",
    "stop_lon": "76.1960939",
    "zone_id": "",
    "stop_url": "",
    "location_type": "0",
    "parent_station": "",
    "stop_timezone": "",
    "wheelchair_boarding": "0"
  },
  {
    "stop_id": "n6926314826",
    "stop_code": "",
    "stop_name": "Padma",
    "stop_desc": "",
    "stop_lat": "9.98074",
    "stop_lon": "76.2831629",
    "zone_id": "",
    "stop_url": "",
    "location_type": "0",
    "parent_station": "",
    "stop_timezone": "",
    "wheelchair_boarding": "0"
  },
  {
    "stop_id": "n6996454939",
    "stop_code": "",
    "stop_name": "Nadakkavu",
    "stop_desc": "",
    "stop_lat": "9.8979466",
    "stop_lon": "76.3693632",
    "zone_id": "",
    "stop_url": "",
    "location_type": "0",
    "parent_station": "",
    "stop_timezone": "",
    "wheelchair_boarding": "0"
  },
  {
    "stop_id": "n7018599468",
    "stop_code": "",
    "stop_name": "Puthuvype",
    "stop_desc": "",
    "stop_lat": "10.0036646",
    "stop_lon": "76.2332627",
    "zone_id": "",
    "stop_url": "",
    "location_type": "0",
    "parent_station": "",
    "stop_timezone": "",
    "wheelchair_boarding": "0"
  },
  {
    "stop_id": "n7018599469",
    "stop_code": "",
    "stop_name": "Puthuvype",
    "stop_desc": "",
    "stop_lat": "10.0043519",
    "stop_lon": "76.2328216",
    "zone_id": "",
    "stop_url": "",
    "location_type": "0",
    "parent_station": "",
    "stop_timezone": "",
    "wheelchair_boarding": "0"
  },
  {
    "stop_id": "n7018735456",
    "stop_code": "",
    "stop_name": "Valappu",
    "stop_desc": "",
    "stop_lat": "10.0147926",
    "stop_lon": "76.2275184",
    "zone_id": "",
    "stop_url": "",
    "location_type": "0",
    "parent_station": "",
    "stop_timezone": "",
    "wheelchair_boarding": "0"
  },
  {
    "stop_id": "n7018945497",
    "stop_code": "",
    "stop_name": "Company Peedika",
    "stop_desc": "",
    "stop_lat": "10.0007003",
    "stop_lon": "76.234858",
    "zone_id": "",
    "stop_url": "",
    "location_type": "0",
    "parent_station": "",
    "stop_timezone": "",
    "wheelchair_boarding": "0"
  },
  {
    "stop_id": "n7019483219",
    "stop_code": "",
    "stop_name": "Malippuram Paalam",
    "stop_desc": "",
    "stop_lat": "10.0188416",
    "stop_lon": "76.2256224",
    "zone_id": "",
    "stop_url": "",
    "location_type": "0",
    "parent_station": "",
    "stop_timezone": "",
    "wheelchair_boarding": "0"
  },
  {
    "stop_id": "n7019483220",
    "stop_code": "",
    "stop_name": "Malippuram Paalam",
    "stop_desc": "",
    "stop_lat": "10.0187084",
    "stop_lon": "76.2257818",
    "zone_id": "",
    "stop_url": "",
    "location_type": "0",
    "parent_station": "",
    "stop_timezone": "",
    "wheelchair_boarding": "0"
  },
  {
    "stop_id": "n7019489991",
    "stop_code": "",
    "stop_name": "Veliyatham Parambu",
    "stop_desc": "",
    "stop_lat": "10.0567263",
    "stop_lon": "76.2151785",
    "zone_id": "",
    "stop_url": "",
    "location_type": "0",
    "parent_station": "",
    "stop_timezone": "",
    "wheelchair_boarding": "0"
  },
  {
    "stop_id": "n7019489996",
    "stop_code": "",
    "stop_name": "CT Office",
    "stop_desc": "",
    "stop_lat": "10.0676877",
    "stop_lon": "76.2125859",
    "zone_id": "",
    "stop_url": "",
    "location_type": "0",
    "parent_station": "",
    "stop_timezone": "",
    "wheelchair_boarding": "0"
  },
  {
    "stop_id": "n7019490009",
    "stop_code": "",
    "stop_name": "Thayyezhuth Vazhi",
    "stop_desc": "",
    "stop_lat": "10.0756353",
    "stop_lon": "76.2113508",
    "zone_id": "",
    "stop_url": "",
    "location_type": "0",
    "parent_station": "",
    "stop_timezone": "",
    "wheelchair_boarding": "0"
  },
  {
    "stop_id": "n7019490039",
    "stop_code": "",
    "stop_name": "Aniyal",
    "stop_desc": "",
    "stop_lat": "10.0791786",
    "stop_lon": "76.2104453",
    "zone_id": "",
    "stop_url": "",
    "location_type": "0",
    "parent_station": "",
    "stop_timezone": "",
    "wheelchair_boarding": "0"
  },
  {
    "stop_id": "n7019490048",
    "stop_code": "",
    "stop_name": "Edavanakad Palli",
    "stop_desc": "",
    "stop_lat": "10.082715",
    "stop_lon": "76.209693",
    "zone_id": "",
    "stop_url": "",
    "location_type": "0",
    "parent_station": "",
    "stop_timezone": "",
    "wheelchair_boarding": "0"
  },
  {
    "stop_id": "n7019490052",
    "stop_code": "",
    "stop_name": "KPMHS",
    "stop_desc": "",
    "stop_lat": "10.085335",
    "stop_lon": "76.209023",
    "zone_id": "",
    "stop_url": "",
    "location_type": "0",
    "parent_station": "",
    "stop_timezone": "",
    "wheelchair_boarding": "0"
  },
  {
    "stop_id": "n7019490053",
    "stop_code": "",
    "stop_name": "KPMHS",
    "stop_desc": "",
    "stop_lat": "10.0852632",
    "stop_lon": "76.2091039",
    "zone_id": "",
    "stop_url": "",
    "location_type": "0",
    "parent_station": "",
    "stop_timezone": "",
    "wheelchair_boarding": "0"
  },
  {
    "stop_id": "n7019490054",
    "stop_code": "",
    "stop_name": "AEO Office",
    "stop_desc": "",
    "stop_lat": "10.0875106",
    "stop_lon": "76.2084925",
    "zone_id": "",
    "stop_url": "",
    "location_type": "0",
    "parent_station": "",
    "stop_timezone": "",
    "wheelchair_boarding": "0"
  },
  {
    "stop_id": "n7019490057",
    "stop_code": "",
    "stop_name": "Pazhangad",
    "stop_desc": "",
    "stop_lat": "10.0910289",
    "stop_lon": "76.2077132",
    "zone_id": "",
    "stop_url": "",
    "location_type": "0",
    "parent_station": "",
    "stop_timezone": "",
    "wheelchair_boarding": "0"
  },
  {
    "stop_id": "n7019490058",
    "stop_code": "",
    "stop_name": "Pazhangad",
    "stop_desc": "",
    "stop_lat": "10.0905406",
    "stop_lon": "76.2077736",
    "zone_id": "",
    "stop_url": "",
    "location_type": "0",
    "parent_station": "",
    "stop_timezone": "",
    "wheelchair_boarding": "0"
  },
  {
    "stop_id": "n7019490059",
    "stop_code": "",
    "stop_name": "Vaachakkal",
    "stop_desc": "",
    "stop_lat": "10.0938299",
    "stop_lon": "76.2068353",
    "zone_id": "",
    "stop_url": "",
    "location_type": "0",
    "parent_station": "",
    "stop_timezone": "",
    "wheelchair_boarding": "0"
  },
  {
    "stop_id": "n7019490060",
    "stop_code": "",
    "stop_name": "Vaachakkal",
    "stop_desc": "",
    "stop_lat": "10.0936806",
    "stop_lon": "76.2069611",
    "zone_id": "",
    "stop_url": "",
    "location_type": "0",
    "parent_station": "",
    "stop_timezone": "",
    "wheelchair_boarding": "0"
  },
  {
    "stop_id": "n7019500464",
    "stop_code": "",
    "stop_name": "Illathupadi",
    "stop_desc": "",
    "stop_lat": "10.0991779",
    "stop_lon": "76.2053817",
    "zone_id": "",
    "stop_url": "",
    "location_type": "0",
    "parent_station": "",
    "stop_timezone": "",
    "wheelchair_boarding": "0"
  },
  {
    "stop_id": "n7019500465",
    "stop_code": "",
    "stop_name": "Illathupadi",
    "stop_desc": "",
    "stop_lat": "10.0993352",
    "stop_lon": "76.2052665",
    "zone_id": "",
    "stop_url": "",
    "location_type": "0",
    "parent_station": "",
    "stop_timezone": "",
    "wheelchair_boarding": "0"
  },
  {
    "stop_id": "n7019500470",
    "stop_code": "",
    "stop_name": "Kuzhuppilly",
    "stop_desc": "",
    "stop_lat": "10.10253",
    "stop_lon": "76.2043416",
    "zone_id": "",
    "stop_url": "",
    "location_type": "0",
    "parent_station": "",
    "stop_timezone": "",
    "wheelchair_boarding": "0"
  },
  {
    "stop_id": "n7019500471",
    "stop_code": "",
    "stop_name": "Kuzhuppilly",
    "stop_desc": "",
    "stop_lat": "10.1023903",
    "stop_lon": "76.2044586",
    "zone_id": "",
    "stop_url": "",
    "location_type": "0",
    "parent_station": "",
    "stop_timezone": "",
    "wheelchair_boarding": "0"
  },
  {
    "stop_id": "n7019500474",
    "stop_code": "",
    "stop_name": "Kuzhuppilly Vadakekkara",
    "stop_desc": "",
    "stop_lat": "10.1043654",
    "stop_lon": "76.2038093",
    "zone_id": "",
    "stop_url": "",
    "location_type": "0",
    "parent_station": "",
    "stop_timezone": "",
    "wheelchair_boarding": "0"
  },
  {
    "stop_id": "n7019500475",
    "stop_code": "",
    "stop_name": "Kuzhuppilly Vadakekkara",
    "stop_desc": "",
    "stop_lat": "10.1045339",
    "stop_lon": "76.2038545",
    "zone_id": "",
    "stop_url": "",
    "location_type": "0",
    "parent_station": "",
    "stop_timezone": "",
    "wheelchair_boarding": "0"
  },
  {
    "stop_id": "n7019540813",
    "stop_code": "",
    "stop_name": "Pallathamkulangara",
    "stop_desc": "",
    "stop_lat": "10.1098017",
    "stop_lon": "76.2026446",
    "zone_id": "",
    "stop_url": "",
    "location_type": "0",
    "parent_station": "",
    "stop_timezone": "",
    "wheelchair_boarding": "0"
  },
  {
    "stop_id": "n7019540815",
    "stop_code": "",
    "stop_name": "Cheruvaippu Junction",
    "stop_desc": "",
    "stop_lat": "10.1134364",
    "stop_lon": "76.2017507",
    "zone_id": "",
    "stop_url": "",
    "location_type": "0",
    "parent_station": "",
    "stop_timezone": "",
    "wheelchair_boarding": "0"
  },
  {
    "stop_id": "n7019570854",
    "stop_code": "",
    "stop_name": "Perumalppadi",
    "stop_desc": "",
    "stop_lat": "10.0250513",
    "stop_lon": "76.2239077",
    "zone_id": "",
    "stop_url": "",
    "location_type": "0",
    "parent_station": "",
    "stop_timezone": "",
    "wheelchair_boarding": "0"
  },
  {
    "stop_id": "n7019570855",
    "stop_code": "",
    "stop_name": "Elamkunnapuzha",
    "stop_desc": "",
    "stop_lat": "10.0305633",
    "stop_lon": "76.2219472",
    "zone_id": "",
    "stop_url": "",
    "location_type": "0",
    "parent_station": "",
    "stop_timezone": "",
    "wheelchair_boarding": "0"
  },
  {
    "stop_id": "n7019570856",
    "stop_code": "",
    "stop_name": "Elamkunnapuzha",
    "stop_desc": "",
    "stop_lat": "10.0307343",
    "stop_lon": "76.2219897",
    "zone_id": "",
    "stop_url": "",
    "location_type": "0",
    "parent_station": "",
    "stop_timezone": "",
    "wheelchair_boarding": "0"
  },
  {
    "stop_id": "n7019570857",
    "stop_code": "",
    "stop_name": "Perumpilly",
    "stop_desc": "",
    "stop_lat": "10.0356491",
    "stop_lon": "76.2205424",
    "zone_id": "",
    "stop_url": "",
    "location_type": "0",
    "parent_station": "",
    "stop_timezone": "",
    "wheelchair_boarding": "0"
  },
  {
    "stop_id": "n7019570858",
    "stop_code": "",
    "stop_name": "Perumpilly",
    "stop_desc": "",
    "stop_lat": "10.0361177",
    "stop_lon": "76.2202792",
    "zone_id": "",
    "stop_url": "",
    "location_type": "0",
    "parent_station": "",
    "stop_timezone": "",
    "wheelchair_boarding": "0"
  },
  {
    "stop_id": "n7019570862",
    "stop_code": "",
    "stop_name": "Hospital Junction",
    "stop_desc": "",
    "stop_lat": "10.0409724",
    "stop_lon": "76.2190011",
    "zone_id": "",
    "stop_url": "",
    "location_type": "0",
    "parent_station": "",
    "stop_timezone": "",
    "wheelchair_boarding": "0"
  },
  {
    "stop_id": "n7019570863",
    "stop_code": "",
    "stop_name": "Hospital Junction",
    "stop_desc": "",
    "stop_lat": "10.0419123",
    "stop_lon": "76.2187302",
    "zone_id": "",
    "stop_url": "",
    "location_type": "0",
    "parent_station": "",
    "stop_timezone": "",
    "wheelchair_boarding": "0"
  },
  {
    "stop_id": "n7019570864",
    "stop_code": "",
    "stop_name": "Njarackal",
    "stop_desc": "",
    "stop_lat": "10.0467028",
    "stop_lon": "76.2174547",
    "zone_id": "",
    "stop_url": "",
    "location_type": "0",
    "parent_station": "",
    "stop_timezone": "",
    "wheelchair_boarding": "0"
  },
  {
    "stop_id": "n7019570866",
    "stop_code": "",
    "stop_name": "Mampilly",
    "stop_desc": "",
    "stop_lat": "10.048835",
    "stop_lon": "76.2168632",
    "zone_id": "",
    "stop_url": "",
    "location_type": "0",
    "parent_station": "",
    "stop_timezone": "",
    "wheelchair_boarding": "0"
  },
  {
    "stop_id": "n7019570867",
    "stop_code": "",
    "stop_name": "Mampilly",
    "stop_desc": "",
    "stop_lat": "10.0488549",
    "stop_lon": "76.2169362",
    "zone_id": "",
    "stop_url": "",
    "location_type": "0",
    "parent_station": "",
    "stop_timezone": "",
    "wheelchair_boarding": "0"
  },
  {
    "stop_id": "n7019570868",
    "stop_code": "",
    "stop_name": "Maanattuparambu",
    "stop_desc": "",
    "stop_lat": "10.0529277",
    "stop_lon": "76.2153837",
    "zone_id": "",
    "stop_url": "",
    "location_type": "0",
    "parent_station": "",
    "stop_timezone": "",
    "wheelchair_boarding": "0"
  },
  {
    "stop_id": "n7019570870",
    "stop_code": "",
    "stop_name": "Veliyatham Parambu",
    "stop_desc": "",
    "stop_lat": "10.0567833",
    "stop_lon": "76.2150498",
    "zone_id": "",
    "stop_url": "",
    "location_type": "0",
    "parent_station": "",
    "stop_timezone": "",
    "wheelchair_boarding": "0"
  },
  {
    "stop_id": "n7019570871",
    "stop_code": "",
    "stop_name": "Kudungasseri",
    "stop_desc": "",
    "stop_lat": "10.0596219",
    "stop_lon": "76.213991",
    "zone_id": "",
    "stop_url": "",
    "location_type": "0",
    "parent_station": "",
    "stop_timezone": "",
    "wheelchair_boarding": "0"
  },